<?xml version="1.0" encoding="UTF-8"?>
<kml xmlns="http://www.opengis.net/kml/2.2">
  <Document>
    <name>Australia</name>
    <description/>
    <Style id="icon-1899-0288D1-nodesc-normal">
      <IconStyle>
        <color>ffd18802</color>
        <scale>1</scale>
        <Icon>
          <href>http://www.gstatic.com/mapspro/images/stock/503-wht-blank_maps.png</href>
        </Icon>
        <hotSpot x="32" xunits="pixels" y="64" yunits="insetPixels"/>
      </IconStyle>
      <LabelStyle>
        <scale>0</scale>
      </LabelStyle>
      <BalloonStyle>
        <text><![CDATA[<h3>$[name]</h3>]]></text>
      </BalloonStyle>
    </Style>
    <Style id="icon-1899-0288D1-nodesc-highlight">
      <IconStyle>
        <color>ffd18802</color>
        <scale>1</scale>
        <Icon>
          <href>http://www.gstatic.com/mapspro/images/stock/503-wht-blank_maps.png</href>
        </Icon>
        <hotSpot x="32" xunits="pixels" y="64" yunits="insetPixels"/>
      </IconStyle>
      <LabelStyle>
        <scale>1</scale>
      </LabelStyle>
      <BalloonStyle>
        <text><![CDATA[<h3>$[name]</h3>]]></text>
      </BalloonStyle>
    </Style>
    <StyleMap id="icon-1899-0288D1-nodesc">
      <Pair>
        <key>normal</key>
        <styleUrl>#icon-1899-0288D1-nodesc-normal</styleUrl>
      </Pair>
      <Pair>
        <key>highlight</key>
        <styleUrl>#icon-1899-0288D1-nodesc-highlight</styleUrl>
      </Pair>
    </StyleMap>
    <Folder>
      <name>Untitled layer</name>
      <Placemark>
        <name>Mount Borradaile</name>
        <styleUrl>#icon-1899-0288D1-nodesc</styleUrl>
        <Point>
          <coordinates>
            132.85,-12.0833333,0
          </coordinates>
        </Point>
      </Placemark>
      <Placemark>
        <name>Lake Barrine</name>
        <styleUrl>#icon-1899-0288D1-nodesc</styleUrl>
        <Point>
          <coordinates>
            145.6390511,-17.2460689,0
          </coordinates>
        </Point>
      </Placemark>
      <Placemark>
        <name>Mount Hypipamee Crater</name>
        <styleUrl>#icon-1899-0288D1-nodesc</styleUrl>
        <Point>
          <coordinates>
            145.4865208,-17.4258883,0
          </coordinates>
        </Point>
      </Placemark>
      <Placemark>
        <name>Curtain Fig Tree</name>
        <styleUrl>#icon-1899-0288D1-nodesc</styleUrl>
        <Point>
          <coordinates>
            145.5739344,-17.2860213,0
          </coordinates>
        </Point>
      </Placemark>
      <Placemark>
        <name>Millaa-Millaa Falls</name>
        <styleUrl>#icon-1899-0288D1-nodesc</styleUrl>
        <Point>
          <coordinates>
            145.6108135,-17.4955744,0
          </coordinates>
        </Point>
      </Placemark>
      <Placemark>
        <name>Ellinjaa Falls</name>
        <styleUrl>#icon-1899-0288D1-nodesc</styleUrl>
        <Point>
          <coordinates>
            145.6557694,-17.4938523,0
          </coordinates>
        </Point>
      </Placemark>
      <Placemark>
        <name>Zillie Falls</name>
        <styleUrl>#icon-1899-0288D1-nodesc</styleUrl>
        <Point>
          <coordinates>
            145.6565651,-17.4749759,0
          </coordinates>
        </Point>
      </Placemark>
      <Placemark>
        <name>Chambers Wildlife Rainforest Lodges</name>
        <styleUrl>#icon-1899-0288D1-nodesc</styleUrl>
        <Point>
          <coordinates>
            145.635521,-17.2860841,0
          </coordinates>
        </Point>
      </Placemark>
      <Placemark>
        <name>Green Island</name>
        <styleUrl>#icon-1899-0288D1-nodesc</styleUrl>
        <Point>
          <coordinates>
            145.9738016,-16.7597228,0
          </coordinates>
        </Point>
      </Placemark>
      <Placemark>
        <name>Cairns</name>
        <styleUrl>#icon-1899-0288D1-nodesc</styleUrl>
        <Point>
          <coordinates>
            145.7780548,-16.9185514,0
          </coordinates>
        </Point>
      </Placemark>
      <Placemark>
        <name>Kuranda</name>
        <styleUrl>#icon-1899-0288D1-nodesc</styleUrl>
        <Point>
          <coordinates>
            145.633333,-16.816667,0
          </coordinates>
        </Point>
      </Placemark>
      <Placemark>
        <name><![CDATA[Bruce Belcher's Daintree River Cruises
]]></name>
        <styleUrl>#icon-1899-0288D1-nodesc</styleUrl>
        <Point>
          <coordinates>
            145.3647323,-16.2601457,0
          </coordinates>
        </Point>
      </Placemark>
      <Placemark>
        <name>Daintree Heritage Lodge</name>
        <styleUrl>#icon-1899-0288D1-nodesc</styleUrl>
        <Point>
          <coordinates>
            145.412173,-16.166456,0
          </coordinates>
        </Point>
      </Placemark>
      <Placemark>
        <name>Cooper Creek Wilderness</name>
        <styleUrl>#icon-1899-0288D1-nodesc</styleUrl>
        <Point>
          <coordinates>
            145.419137,-16.171689,0
          </coordinates>
        </Point>
      </Placemark>
      <Placemark>
        <name>Thornton Beach</name>
        <styleUrl>#icon-1899-0288D1-nodesc</styleUrl>
        <Point>
          <coordinates>
            145.4412624,-16.173092,0
          </coordinates>
        </Point>
      </Placemark>
      <Placemark>
        <name>Darwin</name>
        <styleUrl>#icon-1899-0288D1-nodesc</styleUrl>
        <Point>
          <coordinates>
            130.8456418,-12.4634403,0
          </coordinates>
        </Point>
      </Placemark>
      <Placemark>
        <name>Nourlangie Rock</name>
        <styleUrl>#icon-1899-0288D1-nodesc</styleUrl>
        <Point>
          <coordinates>
            132.8120939,-12.8620638,0
          </coordinates>
        </Point>
      </Placemark>
      <Placemark>
        <name>Ubirr</name>
        <styleUrl>#icon-1899-0288D1-nodesc</styleUrl>
        <Point>
          <coordinates>
            132.9559355,-12.4082056,0
          </coordinates>
        </Point>
      </Placemark>
      <Placemark>
        <name>Kings Canyon</name>
        <styleUrl>#icon-1899-0288D1-nodesc</styleUrl>
        <Point>
          <coordinates>
            131.5800424,-24.2506812,0
          </coordinates>
        </Point>
      </Placemark>
      <Placemark>
        <name>Uluru</name>
        <styleUrl>#icon-1899-0288D1-nodesc</styleUrl>
        <Point>
          <coordinates>
            131.0368822,-25.3444277,0
          </coordinates>
        </Point>
      </Placemark>
      <Placemark>
        <name>Kata Tjuta</name>
        <styleUrl>#icon-1899-0288D1-nodesc</styleUrl>
        <Point>
          <coordinates>
            130.7372222,-25.3008333,0
          </coordinates>
        </Point>
      </Placemark>
      <Placemark>
        <name>Undara Volcanic National Park</name>
        <styleUrl>#icon-1899-0288D1-nodesc</styleUrl>
        <Point>
          <coordinates>
            144.5531284,-18.2651052,0
          </coordinates>
        </Point>
      </Placemark>
      <Placemark>
        <name>Yellow Waters</name>
        <styleUrl>#icon-1899-0288D1-nodesc</styleUrl>
        <Point>
          <coordinates>
            132.518469,-12.896466,0
          </coordinates>
        </Point>
      </Placemark>
      <Placemark>
        <name>Nitmiluk Gorge</name>
        <styleUrl>#icon-1899-0288D1-nodesc</styleUrl>
        <Point>
          <coordinates>
            132.42093,-14.3155851,0
          </coordinates>
        </Point>
      </Placemark>
      <Placemark>
        <name>Gagadju Crocodile Hotel
</name>
        <styleUrl>#icon-1899-0288D1-nodesc</styleUrl>
        <Point>
          <coordinates>
            132.831877,-12.670456,0
          </coordinates>
        </Point>
      </Placemark>
      <Placemark>
        <name>Barna Mia</name>
        <styleUrl>#icon-1899-0288D1-nodesc</styleUrl>
        <Point>
          <coordinates>
            116.9263651,-32.7674229,0
          </coordinates>
        </Point>
      </Placemark>
      <Placemark>
        <name>Geraldton</name>
        <styleUrl>#icon-1899-0288D1-nodesc</styleUrl>
        <Point>
          <coordinates>
            114.6149715,-28.7773715,0
          </coordinates>
        </Point>
      </Placemark>
      <Placemark>
        <name>Greengables Lodge
</name>
        <styleUrl>#icon-1899-0288D1-nodesc</styleUrl>
        <Point>
          <coordinates>
            114.6662755,-28.7061968,0
          </coordinates>
        </Point>
      </Placemark>
      <Placemark>
        <name>Hutt Lagoon</name>
        <styleUrl>#icon-1899-0288D1-nodesc</styleUrl>
        <Point>
          <coordinates>
            114.2449937,-28.1621037,0
          </coordinates>
        </Point>
      </Placemark>
      <Placemark>
        <name>Kalbarri National Park</name>
        <styleUrl>#icon-1899-0288D1-nodesc</styleUrl>
        <Point>
          <coordinates>
            114.3714731,-27.7543546,0
          </coordinates>
        </Point>
      </Placemark>
      <Placemark>
        <name>Perth</name>
        <styleUrl>#icon-1899-0288D1-nodesc</styleUrl>
        <Point>
          <coordinates>
            115.8604572,-31.9505269,0
          </coordinates>
        </Point>
      </Placemark>
      <Placemark>
        <name>Rottnest Island</name>
        <styleUrl>#icon-1899-0288D1-nodesc</styleUrl>
        <Point>
          <coordinates>
            115.5073002,-32.0063677,0
          </coordinates>
        </Point>
      </Placemark>
      <Placemark>
        <name>Fremantle</name>
        <styleUrl>#icon-1899-0288D1-nodesc</styleUrl>
        <Point>
          <coordinates>
            115.7551085,-32.0518191,0
          </coordinates>
        </Point>
      </Placemark>
      <Placemark>
        <name>The Pinnacles</name>
        <styleUrl>#icon-1899-0288D1-nodesc</styleUrl>
        <Point>
          <coordinates>
            115.2111111,-30.6472222,0
          </coordinates>
        </Point>
      </Placemark>
      <Placemark>
        <name>Cervantes</name>
        <styleUrl>#icon-1899-0288D1-nodesc</styleUrl>
        <Point>
          <coordinates>
            115.0665341,-30.505162,0
          </coordinates>
        </Point>
      </Placemark>
      <Placemark>
        <name>Lake Thetis</name>
        <styleUrl>#icon-1899-0288D1-nodesc</styleUrl>
        <Point>
          <coordinates>
            115.0805556,-30.5072222,0
          </coordinates>
        </Point>
      </Placemark>
      <Placemark>
        <name>Monkey Mia</name>
        <styleUrl>#icon-1899-0288D1-nodesc</styleUrl>
        <Point>
          <coordinates>
            113.7187569,-25.7943082,0
          </coordinates>
        </Point>
      </Placemark>
      <Placemark>
        <name>Hamelin Pool</name>
        <styleUrl>#icon-1899-0288D1-nodesc</styleUrl>
        <Point>
          <coordinates>
            114.4625194,-26.4092839,0
          </coordinates>
        </Point>
      </Placemark>
      <Placemark>
        <name>Denham</name>
        <styleUrl>#icon-1899-0288D1-nodesc</styleUrl>
        <Point>
          <coordinates>
            113.5423745,-25.927196,0
          </coordinates>
        </Point>
      </Placemark>
      <Placemark>
        <name>Shell Beach</name>
        <styleUrl>#icon-1899-0288D1-nodesc</styleUrl>
        <Point>
          <coordinates>
            113.7736111,-26.215,0
          </coordinates>
        </Point>
      </Placemark>
      <Placemark>
        <name>Francois Peron National Park</name>
        <styleUrl>#icon-1899-0288D1-nodesc</styleUrl>
        <Point>
          <coordinates>
            113.6233155,-25.8370706,0
          </coordinates>
        </Point>
      </Placemark>
      <Placemark>
        <name>Conspicuous Cliffs
</name>
        <styleUrl>#icon-1899-0288D1-nodesc</styleUrl>
        <Point>
          <coordinates>
            116.8432987,-35.0389989,0
          </coordinates>
        </Point>
      </Placemark>
      <Placemark>
        <name>Valley of the Giants</name>
        <styleUrl>#icon-1899-0288D1-nodesc</styleUrl>
        <Point>
          <coordinates>
            116.8935444,-34.9780479,0
          </coordinates>
        </Point>
      </Placemark>
      <Placemark>
        <name>Walpole-Nornalup inlet
</name>
        <styleUrl>#icon-1899-0288D1-nodesc</styleUrl>
        <Point>
          <coordinates>
            116.7319649,-35.003558,0
          </coordinates>
        </Point>
      </Placemark>
    </Folder>
  </Document>
</kml>
