<?xml version="1.0" encoding="UTF-8"?>
<kml xmlns="http://www.opengis.net/kml/2.2">
  <Document>
    <name>Great Britain</name>
    <description/>
    <Style id="icon-1899-0288D1-nodesc-normal">
      <IconStyle>
        <color>ffd18802</color>
        <scale>1</scale>
        <Icon>
          <href>http://www.gstatic.com/mapspro/images/stock/503-wht-blank_maps.png</href>
        </Icon>
        <hotSpot x="32" xunits="pixels" y="64" yunits="insetPixels"/>
      </IconStyle>
      <LabelStyle>
        <scale>0</scale>
      </LabelStyle>
      <BalloonStyle>
        <text><![CDATA[<h3>$[name]</h3>]]></text>
      </BalloonStyle>
    </Style>
    <Style id="icon-1899-0288D1-nodesc-highlight">
      <IconStyle>
        <color>ffd18802</color>
        <scale>1</scale>
        <Icon>
          <href>http://www.gstatic.com/mapspro/images/stock/503-wht-blank_maps.png</href>
        </Icon>
        <hotSpot x="32" xunits="pixels" y="64" yunits="insetPixels"/>
      </IconStyle>
      <LabelStyle>
        <scale>1</scale>
      </LabelStyle>
      <BalloonStyle>
        <text><![CDATA[<h3>$[name]</h3>]]></text>
      </BalloonStyle>
    </Style>
    <StyleMap id="icon-1899-0288D1-nodesc">
      <Pair>
        <key>normal</key>
        <styleUrl>#icon-1899-0288D1-nodesc-normal</styleUrl>
      </Pair>
      <Pair>
        <key>highlight</key>
        <styleUrl>#icon-1899-0288D1-nodesc-highlight</styleUrl>
      </Pair>
    </StyleMap>
    <Folder>
      <name>Untitled layer</name>
      <Placemark>
        <name>Dunwich Heath</name>
        <styleUrl>#icon-1899-0288D1-nodesc</styleUrl>
        <Point>
          <coordinates>
            1.62671499999999,52.25889,0
          </coordinates>
        </Point>
      </Placemark>
      <Placemark>
        <name>Sutton Hoo</name>
        <styleUrl>#icon-1899-0288D1-nodesc</styleUrl>
        <Point>
          <coordinates>
            1.3407962,52.0944505,0
          </coordinates>
        </Point>
      </Placemark>
      <Placemark>
        <name>Crich Tramway Museum</name>
        <styleUrl>#icon-1899-0288D1-nodesc</styleUrl>
        <Point>
          <coordinates>
            -1.48666930000002,53.0903012,0
          </coordinates>
        </Point>
      </Placemark>
      <Placemark>
        <name><![CDATA[Poole's Cavern]]></name>
        <styleUrl>#icon-1899-0288D1-nodesc</styleUrl>
        <Point>
          <coordinates>
            -1.9251782,53.24997,0
          </coordinates>
        </Point>
      </Placemark>
      <Placemark>
        <name>Allesley Hotel</name>
        <styleUrl>#icon-1899-0288D1-nodesc</styleUrl>
        <Point>
          <coordinates>
            -1.56006709999997,52.4227875,0
          </coordinates>
        </Point>
      </Placemark>
      <Placemark>
        <name>Eastbourne</name>
        <styleUrl>#icon-1899-0288D1-nodesc</styleUrl>
        <Point>
          <coordinates>
            0.290472000000022,50.768035,0
          </coordinates>
        </Point>
      </Placemark>
      <Placemark>
        <name>Herstmonceux Observatory
</name>
        <styleUrl>#icon-1899-0288D1-nodesc</styleUrl>
        <Point>
          <coordinates>
            0.3456218,50.8702576,0
          </coordinates>
        </Point>
      </Placemark>
      <Placemark>
        <name>Grizedale Forest</name>
        <styleUrl>#icon-1899-0288D1-nodesc</styleUrl>
        <Point>
          <coordinates>
            -3.00028999999995,54.354267,0
          </coordinates>
        </Point>
      </Placemark>
      <Placemark>
        <name>Rydal Mount</name>
        <styleUrl>#icon-1899-0288D1-nodesc</styleUrl>
        <Point>
          <coordinates>
            -2.98199950000003,54.4488337,0
          </coordinates>
        </Point>
      </Placemark>
      <Placemark>
        <name>Castlerigg Stone Circle</name>
        <styleUrl>#icon-1899-0288D1-nodesc</styleUrl>
        <Point>
          <coordinates>
            -3.09840199999996,54.602824,0
          </coordinates>
        </Point>
      </Placemark>
      <Placemark>
        <name>Loughton Baptist Church</name>
        <styleUrl>#icon-1899-0288D1-nodesc</styleUrl>
        <Point>
          <coordinates>
            0.050617099999954,51.6442753,0
          </coordinates>
        </Point>
      </Placemark>
      <Placemark>
        <name>Coniston Water</name>
        <styleUrl>#icon-1899-0288D1-nodesc</styleUrl>
        <Point>
          <coordinates>
            -3.07162659999995,54.343243,0
          </coordinates>
        </Point>
      </Placemark>
      <Placemark>
        <name>Biggin Hill</name>
        <styleUrl>#icon-1899-0288D1-nodesc</styleUrl>
        <Point>
          <coordinates>
            0.0287677000000031,51.3318849,0
          </coordinates>
        </Point>
      </Placemark>
      <Placemark>
        <name>Houghton Hall</name>
        <styleUrl>#icon-1899-0288D1-nodesc</styleUrl>
        <Point>
          <coordinates>
            0.65781579999998,52.826846,0
          </coordinates>
        </Point>
      </Placemark>
      <Placemark>
        <name>Canterbury Cathedral</name>
        <styleUrl>#icon-1899-0288D1-nodesc</styleUrl>
        <Point>
          <coordinates>
            1.08279979999998,51.2797971,0
          </coordinates>
        </Point>
      </Placemark>
      <Placemark>
        <name>Leeds Castle</name>
        <styleUrl>#icon-1899-0288D1-nodesc</styleUrl>
        <Point>
          <coordinates>
            0.630464899999993,51.2489896,0
          </coordinates>
        </Point>
      </Placemark>
      <Placemark>
        <name>Dover Castle</name>
        <styleUrl>#icon-1899-0288D1-nodesc</styleUrl>
        <Point>
          <coordinates>
            1.32339100000002,51.128771,0
          </coordinates>
        </Point>
      </Placemark>
      <Placemark>
        <name>White Cliffs of Dover</name>
        <styleUrl>#icon-1899-0288D1-nodesc</styleUrl>
        <Point>
          <coordinates>
            1.35730280000007,51.1344689,0
          </coordinates>
        </Point>
      </Placemark>
      <Placemark>
        <name>Sandringham</name>
        <styleUrl>#icon-1899-0288D1-nodesc</styleUrl>
        <Point>
          <coordinates>
            0.512488899999994,52.8296856,0
          </coordinates>
        </Point>
      </Placemark>
      <Placemark>
        <name>Thursford Collection
</name>
        <styleUrl>#icon-1899-0288D1-nodesc</styleUrl>
        <Point>
          <coordinates>
            0.94048650000002,52.8710396,0
          </coordinates>
        </Point>
      </Placemark>
      <Placemark>
        <name>Blickling Estate</name>
        <styleUrl>#icon-1899-0288D1-nodesc</styleUrl>
        <Point>
          <coordinates>
            1.23164700000007,52.811731,0
          </coordinates>
        </Point>
      </Placemark>
      <Placemark>
        <name>Holkham Hall</name>
        <styleUrl>#icon-1899-0288D1-nodesc</styleUrl>
        <Point>
          <coordinates>
            0.803676999999993,52.949851,0
          </coordinates>
        </Point>
      </Placemark>
      <Placemark>
        <name>Felbrigg Hall</name>
        <styleUrl>#icon-1899-0288D1-nodesc</styleUrl>
        <Point>
          <coordinates>
            1.27724820000003,52.9144158,0
          </coordinates>
        </Point>
      </Placemark>
      <Placemark>
        <name>Little Walsingham</name>
        <styleUrl>#icon-1899-0288D1-nodesc</styleUrl>
        <Point>
          <coordinates>
            0.875399099999981,52.8959389,0
          </coordinates>
        </Point>
      </Placemark>
      <Placemark>
        <name>Blakeney Point</name>
        <styleUrl>#icon-1899-0288D1-nodesc</styleUrl>
        <Point>
          <coordinates>
            0.961510299999986,52.9666526,0
          </coordinates>
        </Point>
      </Placemark>
      <Placemark>
        <name>Caithness Crystal Kings Lynn</name>
        <styleUrl>#icon-1899-0288D1-nodesc</styleUrl>
        <Point>
          <coordinates>
            0.409890000000019,52.742053,0
          </coordinates>
        </Point>
      </Placemark>
      <Placemark>
        <name>Legoland Windsor</name>
        <styleUrl>#icon-1899-0288D1-nodesc</styleUrl>
        <Point>
          <coordinates>
            -0.650027499999965,51.4638338,0
          </coordinates>
        </Point>
      </Placemark>
      <Placemark>
        <name>Windsor Castle</name>
        <styleUrl>#icon-1899-0288D1-nodesc</styleUrl>
        <Point>
          <coordinates>
            -0.604402700000037,51.483894,0
          </coordinates>
        </Point>
      </Placemark>
      <Placemark>
        <name>The Savill Garden</name>
        <styleUrl>#icon-1899-0288D1-nodesc</styleUrl>
        <Point>
          <coordinates>
            -0.595096499999954,51.4261436,0
          </coordinates>
        </Point>
      </Placemark>
      <Placemark>
        <name>Lindisfarne Abbey</name>
        <styleUrl>#icon-1899-0288D1-nodesc</styleUrl>
        <Point>
          <coordinates>
            -1.80089450000003,55.6691551,0
          </coordinates>
        </Point>
      </Placemark>
      <Placemark>
        <name>Osborne House</name>
        <styleUrl>#icon-1899-0288D1-nodesc</styleUrl>
        <Point>
          <coordinates>
            -1.26943099999994,50.750372,0
          </coordinates>
        </Point>
      </Placemark>
      <Placemark>
        <name>Mottistone Manor
</name>
        <styleUrl>#icon-1899-0288D1-nodesc</styleUrl>
        <Point>
          <coordinates>
            -1.42704800000001,50.65246,0
          </coordinates>
        </Point>
      </Placemark>
      <Placemark>
        <name>The Needles</name>
        <styleUrl>#icon-1899-0288D1-nodesc</styleUrl>
        <Point>
          <coordinates>
            -1.58983950000004,50.6626024,0
          </coordinates>
        </Point>
      </Placemark>
      <Placemark>
        <name>Ventnor Botanic Garden</name>
        <styleUrl>#icon-1899-0288D1-nodesc</styleUrl>
        <Point>
          <coordinates>
            -1.22664810000003,50.5895122,0
          </coordinates>
        </Point>
      </Placemark>
      <Placemark>
        <name>Brading Roman Villa</name>
        <styleUrl>#icon-1899-0288D1-nodesc</styleUrl>
        <Point>
          <coordinates>
            -1.15274539999996,50.6730117,0
          </coordinates>
        </Point>
      </Placemark>
      <Placemark>
        <name>Dinosaur Isle</name>
        <styleUrl>#icon-1899-0288D1-nodesc</styleUrl>
        <Point>
          <coordinates>
            -1.14275900000007,50.659197,0
          </coordinates>
        </Point>
      </Placemark>
      <Placemark>
        <name>Waltzing Waters</name>
        <styleUrl>#icon-1899-0288D1-nodesc</styleUrl>
        <Point>
          <coordinates>
            -1.14075790000004,50.7105509,0
          </coordinates>
        </Point>
      </Placemark>
      <Placemark>
        <name>National Railway Museum York</name>
        <styleUrl>#icon-1899-0288D1-nodesc</styleUrl>
        <Point>
          <coordinates>
            -1.09636599999999,53.9605467,0
          </coordinates>
        </Point>
      </Placemark>
      <Placemark>
        <name>York Minster</name>
        <styleUrl>#icon-1899-0288D1-nodesc</styleUrl>
        <Point>
          <coordinates>
            -1.08192050000002,53.9623292,0
          </coordinates>
        </Point>
      </Placemark>
      <Placemark>
        <name>Willersley Castle</name>
        <styleUrl>#icon-1899-0288D1-nodesc</styleUrl>
        <Point>
          <coordinates>
            -1.55287279999993,53.1137985,0
          </coordinates>
        </Point>
      </Placemark>
      <Placemark>
        <name>Masson Mills</name>
        <styleUrl>#icon-1899-0288D1-nodesc</styleUrl>
        <Point>
          <coordinates>
            -1.5619236,53.1126478,0
          </coordinates>
        </Point>
      </Placemark>
      <Placemark>
        <name>Chatsworth House</name>
        <styleUrl>#icon-1899-0288D1-nodesc</styleUrl>
        <Point>
          <coordinates>
            -1.61142740000003,53.2275433,0
          </coordinates>
        </Point>
      </Placemark>
      <Placemark>
        <name>Kedleston Hall</name>
        <styleUrl>#icon-1899-0288D1-nodesc</styleUrl>
        <Point>
          <coordinates>
            -1.53696160000004,52.9593247,0
          </coordinates>
        </Point>
      </Placemark>
      <Placemark>
        <name>Haddon Hall</name>
        <styleUrl>#icon-1899-0288D1-nodesc</styleUrl>
        <Point>
          <coordinates>
            -1.64959299999998,53.193965,0
          </coordinates>
        </Point>
      </Placemark>
      <Placemark>
        <name>Biddulph Grange Garden</name>
        <styleUrl>#icon-1899-0288D1-nodesc</styleUrl>
        <Point>
          <coordinates>
            -2.16230599999994,53.129376,0
          </coordinates>
        </Point>
      </Placemark>
      <Placemark>
        <name>Little Moreton Hall</name>
        <styleUrl>#icon-1899-0288D1-nodesc</styleUrl>
        <Point>
          <coordinates>
            -2.25174659999993,53.1271607,0
          </coordinates>
        </Point>
      </Placemark>
      <Placemark>
        <name>Holy Isle</name>
        <styleUrl>#icon-1899-0288D1-nodesc</styleUrl>
        <Point>
          <coordinates>
            -5.07310860000007,55.525063,0
          </coordinates>
        </Point>
      </Placemark>
      <Placemark>
        <name>Histon</name>
        <styleUrl>#icon-1899-0288D1-nodesc</styleUrl>
        <Point>
          <coordinates>
            0.103711999999973,52.254867,0
          </coordinates>
        </Point>
      </Placemark>
      <Placemark>
        <name>Elton Hall</name>
        <styleUrl>#icon-1899-0288D1-nodesc</styleUrl>
        <Point>
          <coordinates>
            -0.39647089999994,52.5238629,0
          </coordinates>
        </Point>
      </Placemark>
      <Placemark>
        <name>Forest of Dean</name>
        <styleUrl>#icon-1899-0288D1-nodesc</styleUrl>
        <Point>
          <coordinates>
            -2.55191690000004,51.7999835,0
          </coordinates>
        </Point>
      </Placemark>
      <Placemark>
        <name>Symonds Yat</name>
        <styleUrl>#icon-1899-0288D1-nodesc</styleUrl>
        <Point>
          <coordinates>
            -2.64627940000003,51.8463095,0
          </coordinates>
        </Point>
      </Placemark>
      <Placemark>
        <name>Clearwell Caves</name>
        <styleUrl>#icon-1899-0288D1-nodesc</styleUrl>
        <Point>
          <coordinates>
            -2.614327,51.771064,0
          </coordinates>
        </Point>
      </Placemark>
      <Placemark>
        <name>Monmouth and Brecon canal</name>
        <styleUrl>#icon-1899-0288D1-nodesc</styleUrl>
        <Point>
          <coordinates>
            -3.10269010000002,51.8270628,0
          </coordinates>
        </Point>
      </Placemark>
      <Placemark>
        <name>Carrow Road</name>
        <styleUrl>#icon-1899-0288D1-nodesc</styleUrl>
        <Point>
          <coordinates>
            1.30915329999993,52.6221139,0
          </coordinates>
        </Point>
      </Placemark>
      <Placemark>
        <name>Norwich Castle</name>
        <styleUrl>#icon-1899-0288D1-nodesc</styleUrl>
        <Point>
          <coordinates>
            1.29631900000004,52.6287796,0
          </coordinates>
        </Point>
      </Placemark>
      <Placemark>
        <name>Bridewell Museum</name>
        <styleUrl>#icon-1899-0288D1-nodesc</styleUrl>
        <Point>
          <coordinates>
            1.29514549999999,52.6301269,0
          </coordinates>
        </Point>
      </Placemark>
      <Placemark>
        <name><![CDATA[Strangers' Hall]]></name>
        <styleUrl>#icon-1899-0288D1-nodesc</styleUrl>
        <Point>
          <coordinates>
            1.29248080000002,52.6307068,0
          </coordinates>
        </Point>
      </Placemark>
      <Placemark>
        <name>Norwich Cathedral</name>
        <styleUrl>#icon-1899-0288D1-nodesc</styleUrl>
        <Point>
          <coordinates>
            1.30118259999995,52.6318974,0
          </coordinates>
        </Point>
      </Placemark>
      <Placemark>
        <name>St. Andrews Hall Norwich
</name>
        <styleUrl>#icon-1899-0288D1-nodesc</styleUrl>
        <Point>
          <coordinates>
            1.29571169999997,52.63112,0
          </coordinates>
        </Point>
      </Placemark>
      <Placemark>
        <name>Quiet Waters</name>
        <styleUrl>#icon-1899-0288D1-nodesc</styleUrl>
        <Point>
          <coordinates>
            1.43344769999999,52.4443634,0
          </coordinates>
        </Point>
      </Placemark>
      <Placemark>
        <name>Anglesey Abbey</name>
        <styleUrl>#icon-1899-0288D1-nodesc</styleUrl>
        <Point>
          <coordinates>
            0.244010300000014,52.2365077,0
          </coordinates>
        </Point>
      </Placemark>
      <Placemark>
        <name>Walton-on-the-Naze</name>
        <styleUrl>#icon-1899-0288D1-nodesc</styleUrl>
        <Point>
          <coordinates>
            1.26773600000001,51.848186,0
          </coordinates>
        </Point>
      </Placemark>
      <Placemark>
        <name>St Andrews Church Histon</name>
        <styleUrl>#icon-1899-0288D1-nodesc</styleUrl>
        <Point>
          <coordinates>
            0.102640500000007,52.255324,0
          </coordinates>
        </Point>
      </Placemark>
      <Placemark>
        <name>Grand Union Canal</name>
        <styleUrl>#icon-1899-0288D1-nodesc</styleUrl>
        <Point>
          <coordinates>
            -0.886416999999938,52.1247757,0
          </coordinates>
        </Point>
      </Placemark>
      <Placemark>
        <name>Stonehenge</name>
        <styleUrl>#icon-1899-0288D1-nodesc</styleUrl>
        <Point>
          <coordinates>
            -1.82621500000005,51.178882,0
          </coordinates>
        </Point>
      </Placemark>
      <Placemark>
        <name>Longleat</name>
        <styleUrl>#icon-1899-0288D1-nodesc</styleUrl>
        <Point>
          <coordinates>
            -2.2630077,51.1886251,0
          </coordinates>
        </Point>
      </Placemark>
      <Placemark>
        <name>Avebury Stone Circle
</name>
        <styleUrl>#icon-1899-0288D1-nodesc</styleUrl>
        <Point>
          <coordinates>
            -1.85489080000002,51.4289196,0
          </coordinates>
        </Point>
      </Placemark>
      <Placemark>
        <name>Lyveden New Bield</name>
        <styleUrl>#icon-1899-0288D1-nodesc</styleUrl>
        <Point>
          <coordinates>
            -0.556600099999969,52.4620037,0
          </coordinates>
        </Point>
      </Placemark>
      <Placemark>
        <name>WWT Welney</name>
        <styleUrl>#icon-1899-0288D1-nodesc</styleUrl>
        <Point>
          <coordinates>
            0.278716199999963,52.5269435,0
          </coordinates>
        </Point>
      </Placemark>
      <Placemark>
        <name>Sidholme Hotel</name>
        <styleUrl>#icon-1899-0288D1-nodesc</styleUrl>
        <Point>
          <coordinates>
            -3.23926000000006,50.685705,0
          </coordinates>
        </Point>
      </Placemark>
      <Placemark>
        <name>Killerton House</name>
        <styleUrl>#icon-1899-0288D1-nodesc</styleUrl>
        <Point>
          <coordinates>
            -3.45788779999998,50.7912881,0
          </coordinates>
        </Point>
      </Placemark>
      <Placemark>
        <name>Bicton Gardens</name>
        <styleUrl>#icon-1899-0288D1-nodesc</styleUrl>
        <Point>
          <coordinates>
            -3.31032800000003,50.664164,0
          </coordinates>
        </Point>
      </Placemark>
      <Placemark>
        <name>Budleigh Salterton</name>
        <styleUrl>#icon-1899-0288D1-nodesc</styleUrl>
        <Point>
          <coordinates>
            -3.32021399999996,50.630998,0
          </coordinates>
        </Point>
      </Placemark>
      <Placemark>
        <name>Forde Abbey
</name>
        <styleUrl>#icon-1899-0288D1-nodesc</styleUrl>
        <Point>
          <coordinates>
            -2.91116,50.8428677,0
          </coordinates>
        </Point>
      </Placemark>
      <Placemark>
        <name>Seaton Tramway</name>
        <styleUrl>#icon-1899-0288D1-nodesc</styleUrl>
        <Point>
          <coordinates>
            -3.06779470000004,50.7050832,0
          </coordinates>
        </Point>
      </Placemark>
      <Placemark>
        <name>National Trust - Greenway</name>
        <styleUrl>#icon-1899-0288D1-nodesc</styleUrl>
        <Point>
          <coordinates>
            -3.587805,50.3818977,0
          </coordinates>
        </Point>
      </Placemark>
      <Placemark>
        <name>Kents Cavern Prehistoric Caves</name>
        <styleUrl>#icon-1899-0288D1-nodesc</styleUrl>
        <Point>
          <coordinates>
            -3.50265460000003,50.4677195,0
          </coordinates>
        </Point>
      </Placemark>
      <Placemark>
        <name>Babbacombe Model Village</name>
        <styleUrl>#icon-1899-0288D1-nodesc</styleUrl>
        <Point>
          <coordinates>
            -3.52076599999998,50.482835,0
          </coordinates>
        </Point>
      </Placemark>
      <Placemark>
        <name><![CDATA[Anne Hathaway's cottage]]></name>
        <styleUrl>#icon-1899-0288D1-nodesc</styleUrl>
        <Point>
          <coordinates>
            -1.73192300000005,52.190746,0
          </coordinates>
        </Point>
      </Placemark>
      <Placemark>
        <name>Kenilworth Castle
</name>
        <styleUrl>#icon-1899-0288D1-nodesc</styleUrl>
        <Point>
          <coordinates>
            -1.59210729999995,52.3482086,0
          </coordinates>
        </Point>
      </Placemark>
      <Placemark>
        <name>Packwood House</name>
        <styleUrl>#icon-1899-0288D1-nodesc</styleUrl>
        <Point>
          <coordinates>
            -1.74669740000002,52.3479118,0
          </coordinates>
        </Point>
      </Placemark>
      <Placemark>
        <name>Baddesley Clinton</name>
        <styleUrl>#icon-1899-0288D1-nodesc</styleUrl>
        <Point>
          <coordinates>
            -1.70852020000007,52.3409501,0
          </coordinates>
        </Point>
      </Placemark>
      <Placemark>
        <name>Stratford-upon-Avon Baptist Church</name>
        <styleUrl>#icon-1899-0288D1-nodesc</styleUrl>
        <Point>
          <coordinates>
            -1.70488150000006,52.1945983,0
          </coordinates>
        </Point>
      </Placemark>
      <Placemark>
        <name>Coughton Court</name>
        <styleUrl>#icon-1899-0288D1-nodesc</styleUrl>
        <Point>
          <coordinates>
            -1.87931930000002,52.2436808,0
          </coordinates>
        </Point>
      </Placemark>
      <Placemark>
        <name>Ragley Hall</name>
        <styleUrl>#icon-1899-0288D1-nodesc</styleUrl>
        <Point>
          <coordinates>
            -1.89599999999996,52.198,0
          </coordinates>
        </Point>
      </Placemark>
      <Placemark>
        <name>Stretham Old Engine</name>
        <styleUrl>#icon-1899-0288D1-nodesc</styleUrl>
        <Point>
          <coordinates>
            0.22426710000002,52.3343426,0
          </coordinates>
        </Point>
      </Placemark>
      <Placemark>
        <name><![CDATA[Grime's Graves]]></name>
        <styleUrl>#icon-1899-0288D1-nodesc</styleUrl>
        <Point>
          <coordinates>
            0.676311599999963,52.4768698,0
          </coordinates>
        </Point>
      </Placemark>
      <Placemark>
        <name>Peter Beales Roses</name>
        <styleUrl>#icon-1899-0288D1-nodesc</styleUrl>
        <Point>
          <coordinates>
            0.988335300000017,52.4983844,0
          </coordinates>
        </Point>
      </Placemark>
      <Placemark>
        <name>Gooderstone Water Gardens</name>
        <styleUrl>#icon-1899-0288D1-nodesc</styleUrl>
        <Point>
          <coordinates>
            0.605031000000054,52.58854,0
          </coordinates>
        </Point>
      </Placemark>
      <Placemark>
        <name>Oxburgh Hall</name>
        <styleUrl>#icon-1899-0288D1-nodesc</styleUrl>
        <Point>
          <coordinates>
            0.570369199999959,52.5810368,0
          </coordinates>
        </Point>
      </Placemark>
      <Placemark>
        <name>Banham Zoo</name>
        <styleUrl>#icon-1899-0288D1-nodesc</styleUrl>
        <Point>
          <coordinates>
            1.02538400000003,52.4462819,0
          </coordinates>
        </Point>
      </Placemark>
      <Placemark>
        <name>Dads Army Museum</name>
        <styleUrl>#icon-1899-0288D1-nodesc</styleUrl>
        <Point>
          <coordinates>
            0.750547900000015,52.4129961,0
          </coordinates>
        </Point>
      </Placemark>
      <Placemark>
        <name>Dover Cruise Terminal 1</name>
        <styleUrl>#icon-1899-0288D1-nodesc</styleUrl>
        <Point>
          <coordinates>
            1.3145346,51.1137696,0
          </coordinates>
        </Point>
      </Placemark>
      <Placemark>
        <name>Holiday Inn Express Southampton</name>
        <styleUrl>#icon-1899-0288D1-nodesc</styleUrl>
        <Point>
          <coordinates>
            -1.32329019999997,50.9266979,0
          </coordinates>
        </Point>
      </Placemark>
      <Placemark>
        <name>Mottisfont</name>
        <styleUrl>#icon-1899-0288D1-nodesc</styleUrl>
        <Point>
          <coordinates>
            -1.53324350000003,51.0398988,0
          </coordinates>
        </Point>
      </Placemark>
      <Placemark>
        <name>The Roman Baths</name>
        <styleUrl>#icon-1899-0288D1-nodesc</styleUrl>
        <Point>
          <coordinates>
            -2.35961900000007,51.381072,0
          </coordinates>
        </Point>
      </Placemark>
      <Placemark>
        <name>The Jane Austen Centre</name>
        <styleUrl>#icon-1899-0288D1-nodesc</styleUrl>
        <Point>
          <coordinates>
            -2.36298599999998,51.384053,0
          </coordinates>
        </Point>
      </Placemark>
      <Placemark>
        <name>The Royal Crescent</name>
        <styleUrl>#icon-1899-0288D1-nodesc</styleUrl>
        <Point>
          <coordinates>
            -2.36708499999997,51.3866274,0
          </coordinates>
        </Point>
      </Placemark>
      <Placemark>
        <name>Bathampton</name>
        <styleUrl>#icon-1899-0288D1-nodesc</styleUrl>
        <Point>
          <coordinates>
            -2.32059100000004,51.395142,0
          </coordinates>
        </Point>
      </Placemark>
      <Placemark>
        <name>Dyrham Park</name>
        <styleUrl>#icon-1899-0288D1-nodesc</styleUrl>
        <Point>
          <coordinates>
            -2.37320769999997,51.4801143,0
          </coordinates>
        </Point>
      </Placemark>
      <Placemark>
        <name>Denby Pottery Village</name>
        <styleUrl>#icon-1899-0288D1-nodesc</styleUrl>
        <Point>
          <coordinates>
            -1.41421300000002,53.0225742,0
          </coordinates>
        </Point>
      </Placemark>
      <Placemark>
        <name>Matlock Bath</name>
        <styleUrl>#icon-1899-0288D1-nodesc</styleUrl>
        <Point>
          <coordinates>
            -1.562861,53.121576,0
          </coordinates>
        </Point>
      </Placemark>
      <Placemark>
        <name>Cromford Mill</name>
        <styleUrl>#icon-1899-0288D1-nodesc</styleUrl>
        <Point>
          <coordinates>
            -1.5554783,53.1088642,0
          </coordinates>
        </Point>
      </Placemark>
      <Placemark>
        <name>Robinson College</name>
        <styleUrl>#icon-1899-0288D1-nodesc</styleUrl>
        <Point>
          <coordinates>
            0.104233399999998,52.2049386,0
          </coordinates>
        </Point>
      </Placemark>
      <Placemark>
        <name>Acle</name>
        <styleUrl>#icon-1899-0288D1-nodesc</styleUrl>
        <Point>
          <coordinates>
            1.55064300000004,52.638278,0
          </coordinates>
        </Point>
      </Placemark>
      <Placemark>
        <name><![CDATA[St. Benet's Abbey]]></name>
        <styleUrl>#icon-1899-0288D1-nodesc</styleUrl>
        <Point>
          <coordinates>
            1.52051200000005,52.687429,0
          </coordinates>
        </Point>
      </Placemark>
      <Placemark>
        <name>Toad Hole Cottage Museum</name>
        <styleUrl>#icon-1899-0288D1-nodesc</styleUrl>
        <Point>
          <coordinates>
            1.50785680000001,52.7176517,0
          </coordinates>
        </Point>
      </Placemark>
      <Placemark>
        <name>Stokesby</name>
        <styleUrl>#icon-1899-0288D1-nodesc</styleUrl>
        <Point>
          <coordinates>
            1.594877,52.638172,0
          </coordinates>
        </Point>
      </Placemark>
      <Placemark>
        <name>Burghley House</name>
        <styleUrl>#icon-1899-0288D1-nodesc</styleUrl>
        <Point>
          <coordinates>
            -0.452531300000032,52.6424935,0
          </coordinates>
        </Point>
      </Placemark>
      <Placemark>
        <name>Holker Hall
</name>
        <styleUrl>#icon-1899-0288D1-nodesc</styleUrl>
        <Point>
          <coordinates>
            -2.98260900000002,54.188739,0
          </coordinates>
        </Point>
      </Placemark>
      <Placemark>
        <name>Hill Top Beatrix Potter House</name>
        <styleUrl>#icon-1899-0288D1-nodesc</styleUrl>
        <Point>
          <coordinates>
            -2.97057150000001,54.3517112,0
          </coordinates>
        </Point>
      </Placemark>
      <Placemark>
        <name>Lakes Aquarium</name>
        <styleUrl>#icon-1899-0288D1-nodesc</styleUrl>
        <Point>
          <coordinates>
            -2.95591239999999,54.2783179,0
          </coordinates>
        </Point>
      </Placemark>
      <Placemark>
        <name>Bowness-on-Windermere</name>
        <styleUrl>#icon-1899-0288D1-nodesc</styleUrl>
        <Point>
          <coordinates>
            -2.91962699999999,54.364703,0
          </coordinates>
        </Point>
      </Placemark>
      <Placemark>
        <name>Lakeland Motor Museum</name>
        <styleUrl>#icon-1899-0288D1-nodesc</styleUrl>
        <Point>
          <coordinates>
            -2.9891394,54.2587173,0
          </coordinates>
        </Point>
      </Placemark>
      <Placemark>
        <name>South Lakes Safari Zoo</name>
        <styleUrl>#icon-1899-0288D1-nodesc</styleUrl>
        <Point>
          <coordinates>
            -3.16338389999999,54.1682664,0
          </coordinates>
        </Point>
      </Placemark>
      <Placemark>
        <name>Swarthmoor Hall</name>
        <styleUrl>#icon-1899-0288D1-nodesc</styleUrl>
        <Point>
          <coordinates>
            -3.10197600000004,54.18636,0
          </coordinates>
        </Point>
      </Placemark>
      <Placemark>
        <name>National Motor Museum, Beaulieu</name>
        <styleUrl>#icon-1899-0288D1-nodesc</styleUrl>
        <Point>
          <coordinates>
            -1.45364510000002,50.822998,0
          </coordinates>
        </Point>
      </Placemark>
      <Placemark>
        <name>Axbridge</name>
        <styleUrl>#icon-1899-0288D1-nodesc</styleUrl>
        <Point>
          <coordinates>
            -2.81935199999998,51.28442,0
          </coordinates>
        </Point>
      </Placemark>
      <Placemark>
        <name><![CDATA[Gough's Cave]]></name>
        <styleUrl>#icon-1899-0288D1-nodesc</styleUrl>
        <Point>
          <coordinates>
            -2.76574640000001,51.2819341,0
          </coordinates>
        </Point>
      </Placemark>
      <Placemark>
        <name>Wookey Hole Caves</name>
        <styleUrl>#icon-1899-0288D1-nodesc</styleUrl>
        <Point>
          <coordinates>
            -2.67265380000003,51.2260953,0
          </coordinates>
        </Point>
      </Placemark>
      <Placemark>
        <name>Portsmouth Historic Dockyard</name>
        <styleUrl>#icon-1899-0288D1-nodesc</styleUrl>
        <Point>
          <coordinates>
            -1.10946590000003,50.800531,0
          </coordinates>
        </Point>
      </Placemark>
      <Placemark>
        <name>East Meon</name>
        <styleUrl>#icon-1899-0288D1-nodesc</styleUrl>
        <Point>
          <coordinates>
            -1.03771299999994,50.994361,0
          </coordinates>
        </Point>
      </Placemark>
      <Placemark>
        <name>National Trust - Hinton Ampner</name>
        <styleUrl>#icon-1899-0288D1-nodesc</styleUrl>
        <Point>
          <coordinates>
            -1.15070909999997,51.0436058,0
          </coordinates>
        </Point>
      </Placemark>
      <Placemark>
        <name><![CDATA[Jane Austen's House Museum]]></name>
        <styleUrl>#icon-1899-0288D1-nodesc</styleUrl>
        <Point>
          <coordinates>
            -0.98900500000002,51.133093,0
          </coordinates>
        </Point>
      </Placemark>
      <Placemark>
        <name>Winchester Cathedral</name>
        <styleUrl>#icon-1899-0288D1-nodesc</styleUrl>
        <Point>
          <coordinates>
            -1.31315380000001,51.0606892,0
          </coordinates>
        </Point>
      </Placemark>
      <Placemark>
        <name>Winchester Science Museum
</name>
        <styleUrl>#icon-1899-0288D1-nodesc</styleUrl>
        <Point>
          <coordinates>
            -1.26533599999993,51.059373,0
          </coordinates>
        </Point>
      </Placemark>
      <Placemark>
        <name>Marwell Zoo</name>
        <styleUrl>#icon-1899-0288D1-nodesc</styleUrl>
        <Point>
          <coordinates>
            -1.28335849999996,50.9910678,0
          </coordinates>
        </Point>
      </Placemark>
      <Placemark>
        <name>Uppark House and Garden - National Trust</name>
        <styleUrl>#icon-1899-0288D1-nodesc</styleUrl>
        <Point>
          <coordinates>
            -0.891257600000017,50.9524027,0
          </coordinates>
        </Point>
      </Placemark>
      <Placemark>
        <name>Butser Ancient Farm</name>
        <styleUrl>#icon-1899-0288D1-nodesc</styleUrl>
        <Point>
          <coordinates>
            -0.977458699999943,50.9430336,0
          </coordinates>
        </Point>
      </Placemark>
      <Placemark>
        <name>Hunstanton Sea Life</name>
        <styleUrl>#icon-1899-0288D1-nodesc</styleUrl>
        <Point>
          <coordinates>
            0.483348599999999,52.9349242,0
          </coordinates>
        </Point>
      </Placemark>
      <Placemark>
        <name><![CDATA[Swan's Nest Hotel]]></name>
        <styleUrl>#icon-1899-0288D1-nodesc</styleUrl>
        <Point>
          <coordinates>
            -1.69950700000004,52.190801,0
          </coordinates>
        </Point>
      </Placemark>
      <Placemark>
        <name>Stratford Butterfly Farm</name>
        <styleUrl>#icon-1899-0288D1-nodesc</styleUrl>
        <Point>
          <coordinates>
            -1.70009709999999,52.1895188,0
          </coordinates>
        </Point>
      </Placemark>
      <Placemark>
        <name>The Fourteas</name>
        <styleUrl>#icon-1899-0288D1-nodesc</styleUrl>
        <Point>
          <coordinates>
            -1.70467610000003,52.1914881,0
          </coordinates>
        </Point>
      </Placemark>
      <Placemark>
        <name>Stratford MAD museum</name>
        <styleUrl>#icon-1899-0288D1-nodesc</styleUrl>
        <Point>
          <coordinates>
            -1.70702819999997,52.1931177,0
          </coordinates>
        </Point>
      </Placemark>
      <Placemark>
        <name>Stratford-upon-Avon Baptist Church</name>
        <styleUrl>#icon-1899-0288D1-nodesc</styleUrl>
        <Point>
          <coordinates>
            -1.70488150000006,52.1945983,0
          </coordinates>
        </Point>
      </Placemark>
      <Placemark>
        <name>Manor Farm Soton</name>
        <styleUrl>#icon-1899-0288D1-nodesc</styleUrl>
        <Point>
          <coordinates>
            -1.27746500000001,50.903796,0
          </coordinates>
        </Point>
      </Placemark>
      <Placemark>
        <name>Warner Bros. Studio Tour London</name>
        <styleUrl>#icon-1899-0288D1-nodesc</styleUrl>
        <Point>
          <coordinates>
            -0.418059800000037,51.6903287,0
          </coordinates>
        </Point>
      </Placemark>
      <Placemark>
        <name>Bodiam Castle</name>
        <styleUrl>#icon-1899-0288D1-nodesc</styleUrl>
        <Point>
          <coordinates>
            0.543548999999985,51.002266,0
          </coordinates>
        </Point>
      </Placemark>
      <Placemark>
        <name><![CDATA[Bateman's]]></name>
        <styleUrl>#icon-1899-0288D1-nodesc</styleUrl>
        <Point>
          <coordinates>
            0.379480699999931,50.9893081,0
          </coordinates>
        </Point>
      </Placemark>
      <Placemark>
        <name>Sissinghurst Castle Gardens
</name>
        <styleUrl>#icon-1899-0288D1-nodesc</styleUrl>
        <Point>
          <coordinates>
            0.582359099999962,51.1153408,0
          </coordinates>
        </Point>
      </Placemark>
      <Placemark>
        <name>Groombridge Place
</name>
        <styleUrl>#icon-1899-0288D1-nodesc</styleUrl>
        <Point>
          <coordinates>
            0.188899200000037,51.1182756,0
          </coordinates>
        </Point>
      </Placemark>
      <Placemark>
        <name>Scotney Castle - National Trust</name>
        <styleUrl>#icon-1899-0288D1-nodesc</styleUrl>
        <Point>
          <coordinates>
            0.408233600000017,51.0928332,0
          </coordinates>
        </Point>
      </Placemark>
      <Placemark>
        <name>Goudhurst Inn</name>
        <styleUrl>#icon-1899-0288D1-nodesc</styleUrl>
        <Point>
          <coordinates>
            0.472084999999993,51.113801,0
          </coordinates>
        </Point>
      </Placemark>
      <Placemark>
        <name>Green Cross Inn</name>
        <styleUrl>#icon-1899-0288D1-nodesc</styleUrl>
        <Point>
          <coordinates>
            0.43996930000003,51.1085454,0
          </coordinates>
        </Point>
      </Placemark>
      <Placemark>
        <name>Pembury Baptist Church</name>
        <styleUrl>#icon-1899-0288D1-nodesc</styleUrl>
        <Point>
          <coordinates>
            0.328106899999966,51.1475239,0
          </coordinates>
        </Point>
      </Placemark>
      <Placemark>
        <name>Mutford</name>
        <styleUrl>#icon-1899-0288D1-nodesc</styleUrl>
        <Point>
          <coordinates>
            1.65292590000001,52.435578,0
          </coordinates>
        </Point>
      </Placemark>
      <Placemark>
        <name>SEA LIFE Great Yarmouth</name>
        <styleUrl>#icon-1899-0288D1-nodesc</styleUrl>
        <Point>
          <coordinates>
            1.73648760000003,52.6003335,0
          </coordinates>
        </Point>
      </Placemark>
      <Placemark>
        <name>Time and Tide Museum of Great Yarmouth Life</name>
        <styleUrl>#icon-1899-0288D1-nodesc</styleUrl>
        <Point>
          <coordinates>
            1.73130149999997,52.6017183,0
          </coordinates>
        </Point>
      </Placemark>
      <Placemark>
        <name>Africa Alive!</name>
        <styleUrl>#icon-1899-0288D1-nodesc</styleUrl>
        <Point>
          <coordinates>
            1.70075250000002,52.4140061,0
          </coordinates>
        </Point>
      </Placemark>
      <Placemark>
        <name>Audley End House and Gardens</name>
        <styleUrl>#icon-1899-0288D1-nodesc</styleUrl>
        <Point>
          <coordinates>
            0.220600999999988,52.0207851,0
          </coordinates>
        </Point>
      </Placemark>
      <Placemark>
        <name>Titanic Belfast</name>
        <styleUrl>#icon-1899-0288D1-nodesc</styleUrl>
        <Point>
          <coordinates>
            -5.90997240000002,54.60807,0
          </coordinates>
        </Point>
      </Placemark>
      <Placemark>
        <name>English Market Cork</name>
        <styleUrl>#icon-1899-0288D1-nodesc</styleUrl>
        <Point>
          <coordinates>
            -8.47399999999993,51.898,0
          </coordinates>
        </Point>
      </Placemark>
      <Placemark>
        <name>National Museum of Ireland - Natural History Museum</name>
        <styleUrl>#icon-1899-0288D1-nodesc</styleUrl>
        <Point>
          <coordinates>
            -6.25334780000003,53.3398848,0
          </coordinates>
        </Point>
      </Placemark>
      <Placemark>
        <name>Dunrobin Castle</name>
        <styleUrl>#icon-1899-0288D1-nodesc</styleUrl>
        <Point>
          <coordinates>
            -3.94549729999994,57.9818445,0
          </coordinates>
        </Point>
      </Placemark>
      <Placemark>
        <name>Saint Peter Port</name>
        <styleUrl>#icon-1899-0288D1-nodesc</styleUrl>
        <Point>
          <coordinates>
            -2.54970690000005,49.4541677,0
          </coordinates>
        </Point>
      </Placemark>
      <Placemark>
        <name>Tobermory</name>
        <styleUrl>#icon-1899-0288D1-nodesc</styleUrl>
        <Point>
          <coordinates>
            -6.07230040000002,56.6227813,0
          </coordinates>
        </Point>
      </Placemark>
      <Placemark>
        <name>Ring of Brodgar</name>
        <styleUrl>#icon-1899-0288D1-nodesc</styleUrl>
        <Point>
          <coordinates>
            -3.2297777,59.0014988,0
          </coordinates>
        </Point>
      </Placemark>
      <Placemark>
        <name>Skara Brae Prehistoric Village</name>
        <styleUrl>#icon-1899-0288D1-nodesc</styleUrl>
        <Point>
          <coordinates>
            -3.34170940000001,59.0487479,0
          </coordinates>
        </Point>
      </Placemark>
      <Placemark>
        <name>Dunvegan Castle
</name>
        <styleUrl>#icon-1899-0288D1-nodesc</styleUrl>
        <Point>
          <coordinates>
            -6.59006410000006,57.4484436,0
          </coordinates>
        </Point>
      </Placemark>
      <Placemark>
        <name>Old School Restaurant</name>
        <styleUrl>#icon-1899-0288D1-nodesc</styleUrl>
        <Point>
          <coordinates>
            -6.57292649999999,57.4321147,0
          </coordinates>
        </Point>
      </Placemark>
      <Placemark>
        <name>Kilt Rock</name>
        <styleUrl>#icon-1899-0288D1-nodesc</styleUrl>
        <Point>
          <coordinates>
            -6.17190479999999,57.6107719,0
          </coordinates>
        </Point>
      </Placemark>
      <Placemark>
        <name><![CDATA[The Roses B&B]]></name>
        <styleUrl>#icon-1899-0288D1-nodesc</styleUrl>
        <Point>
          <coordinates>
            -6.18948669999997,57.4235356,0
          </coordinates>
        </Point>
      </Placemark>
      <Placemark>
        <name>Tresco Abbey Garden</name>
        <styleUrl>#icon-1899-0288D1-nodesc</styleUrl>
        <Point>
          <coordinates>
            -6.33296369999994,49.9465289,0
          </coordinates>
        </Point>
      </Placemark>
      <Placemark>
        <name>Pirates Cove Adventure Golf</name>
        <styleUrl>#icon-1899-0288D1-nodesc</styleUrl>
        <Point>
          <coordinates>
            1.73713529999998,52.6057511,0
          </coordinates>
        </Point>
      </Placemark>
      <Placemark>
        <name>Merrivale Model Village</name>
        <styleUrl>#icon-1899-0288D1-nodesc</styleUrl>
        <Point>
          <coordinates>
            1.73622369999998,52.598591,0
          </coordinates>
        </Point>
      </Placemark>
      <Placemark>
        <name>Gorleston Baptist Church</name>
        <styleUrl>#icon-1899-0288D1-nodesc</styleUrl>
        <Point>
          <coordinates>
            1.72654060000002,52.5772838,0
          </coordinates>
        </Point>
      </Placemark>
      <Placemark>
        <name>Somerleyton Hall</name>
        <styleUrl>#icon-1899-0288D1-nodesc</styleUrl>
        <Point>
          <coordinates>
            1.6729186,52.5207063,0
          </coordinates>
        </Point>
      </Placemark>
      <Placemark>
        <name>Mountfitchet Castle</name>
        <styleUrl>#icon-1899-0288D1-nodesc</styleUrl>
        <Point>
          <coordinates>
            0.201252000000068,51.9021458,0
          </coordinates>
        </Point>
      </Placemark>
      <Placemark>
        <name>Aysgarth Falls Hotel</name>
        <styleUrl>#icon-1899-0288D1-nodesc</styleUrl>
        <Point>
          <coordinates>
            -1.98426599999993,54.290612,0
          </coordinates>
        </Point>
      </Placemark>
      <Placemark>
        <name><![CDATA[Jervaulx Abbey & Tearoom]]></name>
        <styleUrl>#icon-1899-0288D1-nodesc</styleUrl>
        <Point>
          <coordinates>
            -1.74220300000002,54.2664072,0
          </coordinates>
        </Point>
      </Placemark>
      <Placemark>
        <name>Wensleydale Creamery</name>
        <styleUrl>#icon-1899-0288D1-nodesc</styleUrl>
        <Point>
          <coordinates>
            -2.2003555,54.3018483,0
          </coordinates>
        </Point>
      </Placemark>
      <Placemark>
        <name>White Scar Cave</name>
        <styleUrl>#icon-1899-0288D1-nodesc</styleUrl>
        <Point>
          <coordinates>
            -2.44170919999999,54.1655977,0
          </coordinates>
        </Point>
      </Placemark>
      <Placemark>
        <name>Ribblehead Viaduct</name>
        <styleUrl>#icon-1899-0288D1-nodesc</styleUrl>
        <Point>
          <coordinates>
            -2.37009039999998,54.2102334,0
          </coordinates>
        </Point>
      </Placemark>
      <Placemark>
        <name>Richmond Georgian Theatre
</name>
        <styleUrl>#icon-1899-0288D1-nodesc</styleUrl>
        <Point>
          <coordinates>
            -1.73802000000001,54.404127,0
          </coordinates>
        </Point>
      </Placemark>
      <Placemark>
        <name>Dales Countryside Museum</name>
        <styleUrl>#icon-1899-0288D1-nodesc</styleUrl>
        <Point>
          <coordinates>
            -2.19237899999996,54.304568,0
          </coordinates>
        </Point>
      </Placemark>
      <Placemark>
        <name>Bolton Castle</name>
        <styleUrl>#icon-1899-0288D1-nodesc</styleUrl>
        <Point>
          <coordinates>
            -1.94953510000005,54.3221452,0
          </coordinates>
        </Point>
      </Placemark>
      <Placemark>
        <name>Middleham Castle</name>
        <styleUrl>#icon-1899-0288D1-nodesc</styleUrl>
        <Point>
          <coordinates>
            -1.80683920000001,54.284083,0
          </coordinates>
        </Point>
      </Placemark>
    </Folder>
  </Document>
</kml>
