<?xml version="1.0" encoding="UTF-8"?>
<kml xmlns="http://www.opengis.net/kml/2.2">
  <Document>
    <name>Great Britain</name>
    <description/>
    <Style id="icon-1899-0288D1-nodesc-normal">
      <IconStyle>
        <color>ffd18802</color>
        <scale>1</scale>
        <Icon>
          <href>http://www.gstatic.com/mapspro/images/stock/503-wht-blank_maps.png</href>
        </Icon>
        <hotSpot x="32" xunits="pixels" y="64" yunits="insetPixels"/>
      </IconStyle>
      <LabelStyle>
        <scale>0</scale>
      </LabelStyle>
      <BalloonStyle>
        <text><![CDATA[<h3>$[name]</h3>]]></text>
      </BalloonStyle>
    </Style>
    <Style id="icon-1899-0288D1-nodesc-highlight">
      <IconStyle>
        <color>ffd18802</color>
        <scale>1</scale>
        <Icon>
          <href>http://www.gstatic.com/mapspro/images/stock/503-wht-blank_maps.png</href>
        </Icon>
        <hotSpot x="32" xunits="pixels" y="64" yunits="insetPixels"/>
      </IconStyle>
      <LabelStyle>
        <scale>1</scale>
      </LabelStyle>
      <BalloonStyle>
        <text><![CDATA[<h3>$[name]</h3>]]></text>
      </BalloonStyle>
    </Style>
    <StyleMap id="icon-1899-0288D1-nodesc">
      <Pair>
        <key>normal</key>
        <styleUrl>#icon-1899-0288D1-nodesc-normal</styleUrl>
      </Pair>
      <Pair>
        <key>highlight</key>
        <styleUrl>#icon-1899-0288D1-nodesc-highlight</styleUrl>
      </Pair>
    </StyleMap>
    <Folder>
      <name>Untitled layer</name>
      <Placemark>
        <name>Dunwich Heath</name>
        <styleUrl>#icon-1899-0288D1-nodesc</styleUrl>
        <Point>
          <coordinates>
            1.62671499999999,52.25889,0
          </coordinates>
        </Point>
      </Placemark>
      <Placemark>
        <name>Sutton Hoo</name>
        <styleUrl>#icon-1899-0288D1-nodesc</styleUrl>
        <Point>
          <coordinates>
            1.3407962,52.0944505,0
          </coordinates>
        </Point>
      </Placemark>
      <Placemark>
        <name>Crich Tramway Museum</name>
        <styleUrl>#icon-1899-0288D1-nodesc</styleUrl>
        <Point>
          <coordinates>
            -1.48666930000002,53.0903012,0
          </coordinates>
        </Point>
      </Placemark>
      <Placemark>
        <name><![CDATA[Poole's Cavern]]></name>
        <styleUrl>#icon-1899-0288D1-nodesc</styleUrl>
        <Point>
          <coordinates>
            -1.9251782,53.24997,0
          </coordinates>
        </Point>
      </Placemark>
      <Placemark>
        <name>Allesley Hotel</name>
        <styleUrl>#icon-1899-0288D1-nodesc</styleUrl>
        <Point>
          <coordinates>
            -1.56006709999997,52.4227875,0
          </coordinates>
        </Point>
      </Placemark>
      <Placemark>
        <name>Eastbourne</name>
        <styleUrl>#icon-1899-0288D1-nodesc</styleUrl>
        <Point>
          <coordinates>
            0.290472000000022,50.768035,0
          </coordinates>
        </Point>
      </Placemark>
      <Placemark>
        <name>Herstmonceux Observatory
</name>
        <styleUrl>#icon-1899-0288D1-nodesc</styleUrl>
        <Point>
          <coordinates>
            0.3456218,50.8702576,0
          </coordinates>
        </Point>
      </Placemark>
      <Placemark>
        <name>Grizedale Forest</name>
        <styleUrl>#icon-1899-0288D1-nodesc</styleUrl>
        <Point>
          <coordinates>
            -3.00028999999995,54.354267,0
          </coordinates>
        </Point>
      </Placemark>
      <Placemark>
        <name>Rydal Mount</name>
        <styleUrl>#icon-1899-0288D1-nodesc</styleUrl>
        <Point>
          <coordinates>
            -2.98199950000003,54.4488337,0
          </coordinates>
        </Point>
      </Placemark>
      <Placemark>
        <name>Castlerigg Stone Circle</name>
        <styleUrl>#icon-1899-0288D1-nodesc</styleUrl>
        <Point>
          <coordinates>
            -3.09840199999996,54.602824,0
          </coordinates>
        </Point>
      </Placemark>
      <Placemark>
        <name>Loughton Baptist Church</name>
        <styleUrl>#icon-1899-0288D1-nodesc</styleUrl>
        <Point>
          <coordinates>
            0.050617099999954,51.6442753,0
          </coordinates>
        </Point>
      </Placemark>
      <Placemark>
        <name>Coniston Water</name>
        <styleUrl>#icon-1899-0288D1-nodesc</styleUrl>
        <Point>
          <coordinates>
            -3.07162659999995,54.343243,0
          </coordinates>
        </Point>
      </Placemark>
      <Placemark>
        <name>Biggin Hill</name>
        <styleUrl>#icon-1899-0288D1-nodesc</styleUrl>
        <Point>
          <coordinates>
            0.0287677000000031,51.3318849,0
          </coordinates>
        </Point>
      </Placemark>
      <Placemark>
        <name>Houghton Hall</name>
        <styleUrl>#icon-1899-0288D1-nodesc</styleUrl>
        <Point>
          <coordinates>
            0.65781579999998,52.826846,0
          </coordinates>
        </Point>
      </Placemark>
      <Placemark>
        <name>Canterbury Cathedral</name>
        <styleUrl>#icon-1899-0288D1-nodesc</styleUrl>
        <Point>
          <coordinates>
            1.08279979999998,51.2797971,0
          </coordinates>
        </Point>
      </Placemark>
      <Placemark>
        <name>Leeds Castle</name>
        <styleUrl>#icon-1899-0288D1-nodesc</styleUrl>
        <Point>
          <coordinates>
            0.630464899999993,51.2489896,0
          </coordinates>
        </Point>
      </Placemark>
      <Placemark>
        <name>Dover Castle</name>
        <styleUrl>#icon-1899-0288D1-nodesc</styleUrl>
        <Point>
          <coordinates>
            1.32339100000002,51.128771,0
          </coordinates>
        </Point>
      </Placemark>
      <Placemark>
        <name>White Cliffs of Dover</name>
        <styleUrl>#icon-1899-0288D1-nodesc</styleUrl>
        <Point>
          <coordinates>
            1.35730280000007,51.1344689,0
          </coordinates>
        </Point>
      </Placemark>
      <Placemark>
        <name>Sandringham</name>
        <styleUrl>#icon-1899-0288D1-nodesc</styleUrl>
        <Point>
          <coordinates>
            0.512488899999994,52.8296856,0
          </coordinates>
        </Point>
      </Placemark>
      <Placemark>
        <name>Thursford Collection
</name>
        <styleUrl>#icon-1899-0288D1-nodesc</styleUrl>
        <Point>
          <coordinates>
            0.94048650000002,52.8710396,0
          </coordinates>
        </Point>
      </Placemark>
      <Placemark>
        <name>Blickling Estate</name>
        <styleUrl>#icon-1899-0288D1-nodesc</styleUrl>
        <Point>
          <coordinates>
            1.23164700000007,52.811731,0
          </coordinates>
        </Point>
      </Placemark>
      <Placemark>
        <name>Holkham Hall</name>
        <styleUrl>#icon-1899-0288D1-nodesc</styleUrl>
        <Point>
          <coordinates>
            0.803676999999993,52.949851,0
          </coordinates>
        </Point>
      </Placemark>
      <Placemark>
        <name>Felbrigg Hall</name>
        <styleUrl>#icon-1899-0288D1-nodesc</styleUrl>
        <Point>
          <coordinates>
            1.27724820000003,52.9144158,0
          </coordinates>
        </Point>
      </Placemark>
      <Placemark>
        <name>Little Walsingham</name>
        <styleUrl>#icon-1899-0288D1-nodesc</styleUrl>
        <Point>
          <coordinates>
            0.875399099999981,52.8959389,0
          </coordinates>
        </Point>
      </Placemark>
      <Placemark>
        <name>Blakeney Point</name>
        <styleUrl>#icon-1899-0288D1-nodesc</styleUrl>
        <Point>
          <coordinates>
            0.961510299999986,52.9666526,0
          </coordinates>
        </Point>
      </Placemark>
      <Placemark>
        <name>Caithness Crystal Kings Lynn</name>
        <styleUrl>#icon-1899-0288D1-nodesc</styleUrl>
        <Point>
          <coordinates>
            0.409890000000019,52.742053,0
          </coordinates>
        </Point>
      </Placemark>
      <Placemark>
        <name>Legoland Windsor</name>
        <styleUrl>#icon-1899-0288D1-nodesc</styleUrl>
        <Point>
          <coordinates>
            -0.650027499999965,51.4638338,0
          </coordinates>
        </Point>
      </Placemark>
      <Placemark>
        <name>Windsor Castle</name>
        <styleUrl>#icon-1899-0288D1-nodesc</styleUrl>
        <Point>
          <coordinates>
            -0.604402700000037,51.483894,0
          </coordinates>
        </Point>
      </Placemark>
      <Placemark>
        <name>The Savill Garden</name>
        <styleUrl>#icon-1899-0288D1-nodesc</styleUrl>
        <Point>
          <coordinates>
            -0.595096499999954,51.4261436,0
          </coordinates>
        </Point>
      </Placemark>
      <Placemark>
        <name>Lindisfarne Abbey</name>
        <styleUrl>#icon-1899-0288D1-nodesc</styleUrl>
        <Point>
          <coordinates>
            -1.80089450000003,55.6691551,0
          </coordinates>
        </Point>
      </Placemark>
      <Placemark>
        <name>Osborne House</name>
        <styleUrl>#icon-1899-0288D1-nodesc</styleUrl>
        <Point>
          <coordinates>
            -1.26943099999994,50.750372,0
          </coordinates>
        </Point>
      </Placemark>
      <Placemark>
        <name>Mottistone Manor
</name>
        <styleUrl>#icon-1899-0288D1-nodesc</styleUrl>
        <Point>
          <coordinates>
            -1.42704800000001,50.65246,0
          </coordinates>
        </Point>
      </Placemark>
      <Placemark>
        <name>The Needles</name>
        <styleUrl>#icon-1899-0288D1-nodesc</styleUrl>
        <Point>
          <coordinates>
            -1.58983950000004,50.6626024,0
          </coordinates>
        </Point>
      </Placemark>
      <Placemark>
        <name>Ventnor Botanic Garden</name>
        <styleUrl>#icon-1899-0288D1-nodesc</styleUrl>
        <Point>
          <coordinates>
            -1.22664810000003,50.5895122,0
          </coordinates>
        </Point>
      </Placemark>
      <Placemark>
        <name>Brading Roman Villa</name>
        <styleUrl>#icon-1899-0288D1-nodesc</styleUrl>
        <Point>
          <coordinates>
            -1.15274539999996,50.6730117,0
          </coordinates>
        </Point>
      </Placemark>
      <Placemark>
        <name>Dinosaur Isle</name>
        <styleUrl>#icon-1899-0288D1-nodesc</styleUrl>
        <Point>
          <coordinates>
            -1.14275900000007,50.659197,0
          </coordinates>
        </Point>
      </Placemark>
      <Placemark>
        <name>Waltzing Waters</name>
        <styleUrl>#icon-1899-0288D1-nodesc</styleUrl>
        <Point>
          <coordinates>
            -1.14075790000004,50.7105509,0
          </coordinates>
        </Point>
      </Placemark>
      <Placemark>
        <name>National Railway Museum York</name>
        <styleUrl>#icon-1899-0288D1-nodesc</styleUrl>
        <Point>
          <coordinates>
            -1.09636599999999,53.9605467,0
          </coordinates>
        </Point>
      </Placemark>
      <Placemark>
        <name>York Minster</name>
        <styleUrl>#icon-1899-0288D1-nodesc</styleUrl>
        <Point>
          <coordinates>
            -1.08192050000002,53.9623292,0
          </coordinates>
        </Point>
      </Placemark>
      <Placemark>
        <name>Willersley Castle</name>
        <styleUrl>#icon-1899-0288D1-nodesc</styleUrl>
        <Point>
          <coordinates>
            -1.55287279999993,53.1137985,0
          </coordinates>
        </Point>
      </Placemark>
      <Placemark>
        <name>Masson Mills</name>
        <styleUrl>#icon-1899-0288D1-nodesc</styleUrl>
        <Point>
          <coordinates>
            -1.5619236,53.1126478,0
          </coordinates>
        </Point>
      </Placemark>
      <Placemark>
        <name>Chatsworth House</name>
        <styleUrl>#icon-1899-0288D1-nodesc</styleUrl>
        <Point>
          <coordinates>
            -1.61142740000003,53.2275433,0
          </coordinates>
        </Point>
      </Placemark>
      <Placemark>
        <name>Kedleston Hall</name>
        <styleUrl>#icon-1899-0288D1-nodesc</styleUrl>
        <Point>
          <coordinates>
            -1.53696160000004,52.9593247,0
          </coordinates>
        </Point>
      </Placemark>
      <Placemark>
        <name>Haddon Hall</name>
        <styleUrl>#icon-1899-0288D1-nodesc</styleUrl>
        <Point>
          <coordinates>
            -1.64959299999998,53.193965,0
          </coordinates>
        </Point>
      </Placemark>
      <Placemark>
        <name>Biddulph Grange Garden</name>
        <styleUrl>#icon-1899-0288D1-nodesc</styleUrl>
        <Point>
          <coordinates>
            -2.16230599999994,53.129376,0
          </coordinates>
        </Point>
      </Placemark>
      <Placemark>
        <name>Little Moreton Hall</name>
        <styleUrl>#icon-1899-0288D1-nodesc</styleUrl>
        <Point>
          <coordinates>
            -2.25174659999993,53.1271607,0
          </coordinates>
        </Point>
      </Placemark>
      <Placemark>
        <name>Holy Isle</name>
        <styleUrl>#icon-1899-0288D1-nodesc</styleUrl>
        <Point>
          <coordinates>
            -5.07310860000007,55.525063,0
          </coordinates>
        </Point>
      </Placemark>
      <Placemark>
        <name>Histon</name>
        <styleUrl>#icon-1899-0288D1-nodesc</styleUrl>
        <Point>
          <coordinates>
            0.103711999999973,52.254867,0
          </coordinates>
        </Point>
      </Placemark>
      <Placemark>
        <name>Elton Hall</name>
        <styleUrl>#icon-1899-0288D1-nodesc</styleUrl>
        <Point>
          <coordinates>
            -0.39647089999994,52.5238629,0
          </coordinates>
        </Point>
      </Placemark>
      <Placemark>
        <name>Forest of Dean</name>
        <styleUrl>#icon-1899-0288D1-nodesc</styleUrl>
        <Point>
          <coordinates>
            -2.55191690000004,51.7999835,0
          </coordinates>
        </Point>
      </Placemark>
      <Placemark>
        <name>Symonds Yat</name>
        <styleUrl>#icon-1899-0288D1-nodesc</styleUrl>
        <Point>
          <coordinates>
            -2.64627940000003,51.8463095,0
          </coordinates>
        </Point>
      </Placemark>
      <Placemark>
        <name>Clearwell Caves</name>
        <styleUrl>#icon-1899-0288D1-nodesc</styleUrl>
        <Point>
          <coordinates>
            -2.614327,51.771064,0
          </coordinates>
        </Point>
      </Placemark>
      <Placemark>
        <name>Monmouth and Brecon canal</name>
        <styleUrl>#icon-1899-0288D1-nodesc</styleUrl>
        <Point>
          <coordinates>
            -3.10269010000002,51.8270628,0
          </coordinates>
        </Point>
      </Placemark>
      <Placemark>
        <name>Carrow Road</name>
        <styleUrl>#icon-1899-0288D1-nodesc</styleUrl>
        <Point>
          <coordinates>
            1.30915329999993,52.6221139,0
          </coordinates>
        </Point>
      </Placemark>
      <Placemark>
        <name>Norwich Castle</name>
        <styleUrl>#icon-1899-0288D1-nodesc</styleUrl>
        <Point>
          <coordinates>
            1.29631900000004,52.6287796,0
          </coordinates>
        </Point>
      </Placemark>
      <Placemark>
        <name>Bridewell Museum</name>
        <styleUrl>#icon-1899-0288D1-nodesc</styleUrl>
        <Point>
          <coordinates>
            1.29514549999999,52.6301269,0
          </coordinates>
        </Point>
      </Placemark>
      <Placemark>
        <name><![CDATA[Strangers' Hall]]></name>
        <styleUrl>#icon-1899-0288D1-nodesc</styleUrl>
        <Point>
          <coordinates>
            1.29248080000002,52.6307068,0
          </coordinates>
        </Point>
      </Placemark>
      <Placemark>
        <name>Norwich Cathedral</name>
        <styleUrl>#icon-1899-0288D1-nodesc</styleUrl>
        <Point>
          <coordinates>
            1.30118259999995,52.6318974,0
          </coordinates>
        </Point>
      </Placemark>
      <Placemark>
        <name>St. Andrews Hall Norwich
</name>
        <styleUrl>#icon-1899-0288D1-nodesc</styleUrl>
        <Point>
          <coordinates>
            1.29571169999997,52.63112,0
          </coordinates>
        </Point>
      </Placemark>
      <Placemark>
        <name>Quiet Waters</name>
        <styleUrl>#icon-1899-0288D1-nodesc</styleUrl>
        <Point>
          <coordinates>
            1.43344769999999,52.4443634,0
          </coordinates>
        </Point>
      </Placemark>
      <Placemark>
        <name>Anglesey Abbey</name>
        <styleUrl>#icon-1899-0288D1-nodesc</styleUrl>
        <Point>
          <coordinates>
            0.244010300000014,52.2365077,0
          </coordinates>
        </Point>
      </Placemark>
      <Placemark>
        <name>Walton-on-the-Naze</name>
        <styleUrl>#icon-1899-0288D1-nodesc</styleUrl>
        <Point>
          <coordinates>
            1.26773600000001,51.848186,0
          </coordinates>
        </Point>
      </Placemark>
      <Placemark>
        <name>St Andrews Church Histon</name>
        <styleUrl>#icon-1899-0288D1-nodesc</styleUrl>
        <Point>
          <coordinates>
            0.102640500000007,52.255324,0
          </coordinates>
        </Point>
      </Placemark>
      <Placemark>
        <name>Grand Union Canal</name>
        <styleUrl>#icon-1899-0288D1-nodesc</styleUrl>
        <Point>
          <coordinates>
            -0.886416999999938,52.1247757,0
          </coordinates>
        </Point>
      </Placemark>
      <Placemark>
        <name>Stonehenge</name>
        <styleUrl>#icon-1899-0288D1-nodesc</styleUrl>
        <Point>
          <coordinates>
            -1.82621500000005,51.178882,0
          </coordinates>
        </Point>
      </Placemark>
      <Placemark>
        <name>Longleat</name>
        <styleUrl>#icon-1899-0288D1-nodesc</styleUrl>
        <Point>
          <coordinates>
            -2.2630077,51.1886251,0
          </coordinates>
        </Point>
      </Placemark>
      <Placemark>
        <name>Avebury Stone Circle
</name>
        <styleUrl>#icon-1899-0288D1-nodesc</styleUrl>
        <Point>
          <coordinates>
            -1.85489080000002,51.4289196,0
          </coordinates>
        </Point>
      </Placemark>
      <Placemark>
        <name>Lyveden New Bield</name>
        <styleUrl>#icon-1899-0288D1-nodesc</styleUrl>
        <Point>
          <coordinates>
            -0.556600099999969,52.4620037,0
          </coordinates>
        </Point>
      </Placemark>
      <Placemark>
        <name>WWT Welney</name>
        <styleUrl>#icon-1899-0288D1-nodesc</styleUrl>
        <Point>
          <coordinates>
            0.278716199999963,52.5269435,0
          </coordinates>
        </Point>
      </Placemark>
      <Placemark>
        <name>Sidholme Hotel</name>
        <styleUrl>#icon-1899-0288D1-nodesc</styleUrl>
        <Point>
          <coordinates>
            -3.23926000000006,50.685705,0
          </coordinates>
        </Point>
      </Placemark>
      <Placemark>
        <name>Killerton House</name>
        <styleUrl>#icon-1899-0288D1-nodesc</styleUrl>
        <Point>
          <coordinates>
            -3.45788779999998,50.7912881,0
          </coordinates>
        </Point>
      </Placemark>
      <Placemark>
        <name>Bicton Gardens</name>
        <styleUrl>#icon-1899-0288D1-nodesc</styleUrl>
        <Point>
          <coordinates>
            -3.31032800000003,50.664164,0
          </coordinates>
        </Point>
      </Placemark>
      <Placemark>
        <name>Budleigh Salterton</name>
        <styleUrl>#icon-1899-0288D1-nodesc</styleUrl>
        <Point>
          <coordinates>
            -3.32021399999996,50.630998,0
          </coordinates>
        </Point>
      </Placemark>
      <Placemark>
        <name>Forde Abbey
</name>
        <styleUrl>#icon-1899-0288D1-nodesc</styleUrl>
        <Point>
          <coordinates>
            -2.91116,50.8428677,0
          </coordinates>
        </Point>
      </Placemark>
      <Placemark>
        <name>Seaton Tramway</name>
        <styleUrl>#icon-1899-0288D1-nodesc</styleUrl>
        <Point>
          <coordinates>
            -3.06779470000004,50.7050832,0
          </coordinates>
        </Point>
      </Placemark>
      <Placemark>
        <name>National Trust - Greenway</name>
        <styleUrl>#icon-1899-0288D1-nodesc</styleUrl>
        <Point>
          <coordinates>
            -3.587805,50.3818977,0
          </coordinates>
        </Point>
      </Placemark>
      <Placemark>
        <name>Kents Cavern Prehistoric Caves</name>
        <styleUrl>#icon-1899-0288D1-nodesc</styleUrl>
        <Point>
          <coordinates>
            -3.50265460000003,50.4677195,0
          </coordinates>
        </Point>
      </Placemark>
      <Placemark>
        <name>Babbacombe Model Village</name>
        <styleUrl>#icon-1899-0288D1-nodesc</styleUrl>
        <Point>
          <coordinates>
            -3.52076599999998,50.482835,0
          </coordinates>
        </Point>
      </Placemark>
      <Placemark>
        <name><![CDATA[Anne Hathaway's cottage]]></name>
        <styleUrl>#icon-1899-0288D1-nodesc</styleUrl>
        <Point>
          <coordinates>
            -1.73192300000005,52.190746,0
          </coordinates>
        </Point>
      </Placemark>
      <Placemark>
        <name>Kenilworth Castle
</name>
        <styleUrl>#icon-1899-0288D1-nodesc</styleUrl>
        <Point>
          <coordinates>
            -1.59210729999995,52.3482086,0
          </coordinates>
        </Point>
      </Placemark>
      <Placemark>
        <name>Packwood House</name>
        <styleUrl>#icon-1899-0288D1-nodesc</styleUrl>
        <Point>
          <coordinates>
            -1.74669740000002,52.3479118,0
          </coordinates>
        </Point>
      </Placemark>
      <Placemark>
        <name>Baddesley Clinton</name>
        <styleUrl>#icon-1899-0288D1-nodesc</styleUrl>
        <Point>
          <coordinates>
            -1.70852020000007,52.3409501,0
          </coordinates>
        </Point>
      </Placemark>
      <Placemark>
        <name>Stratford-upon-Avon Baptist Church</name>
        <styleUrl>#icon-1899-0288D1-nodesc</styleUrl>
        <Point>
          <coordinates>
            -1.70488150000006,52.1945983,0
          </coordinates>
        </Point>
      </Placemark>
      <Placemark>
        <name>Coughton Court</name>
        <styleUrl>#icon-1899-0288D1-nodesc</styleUrl>
        <Point>
          <coordinates>
            -1.87931930000002,52.2436808,0
          </coordinates>
        </Point>
      </Placemark>
      <Placemark>
        <name>Ragley Hall</name>
        <styleUrl>#icon-1899-0288D1-nodesc</styleUrl>
        <Point>
          <coordinates>
            -1.89599999999996,52.198,0
          </coordinates>
        </Point>
      </Placemark>
      <Placemark>
        <name>Stretham Old Engine</name>
        <styleUrl>#icon-1899-0288D1-nodesc</styleUrl>
        <Point>
          <coordinates>
            0.22426710000002,52.3343426,0
          </coordinates>
        </Point>
      </Placemark>
      <Placemark>
        <name><![CDATA[Grime's Graves]]></name>
        <styleUrl>#icon-1899-0288D1-nodesc</styleUrl>
        <Point>
          <coordinates>
            0.676311599999963,52.4768698,0
          </coordinates>
        </Point>
      </Placemark>
      <Placemark>
        <name>Peter Beales Roses</name>
        <styleUrl>#icon-1899-0288D1-nodesc</styleUrl>
        <Point>
          <coordinates>
            0.988335300000017,52.4983844,0
          </coordinates>
        </Point>
      </Placemark>
      <Placemark>
        <name>Gooderstone Water Gardens</name>
        <styleUrl>#icon-1899-0288D1-nodesc</styleUrl>
        <Point>
          <coordinates>
            0.605031000000054,52.58854,0
          </coordinates>
        </Point>
      </Placemark>
      <Placemark>
        <name>Oxburgh Hall</name>
        <styleUrl>#icon-1899-0288D1-nodesc</styleUrl>
        <Point>
          <coordinates>
            0.570369199999959,52.5810368,0
          </coordinates>
        </Point>
      </Placemark>
      <Placemark>
        <name>Banham Zoo</name>
        <styleUrl>#icon-1899-0288D1-nodesc</styleUrl>
        <Point>
          <coordinates>
            1.02538400000003,52.4462819,0
          </coordinates>
        </Point>
      </Placemark>
      <Placemark>
        <name>Dads Army Museum</name>
        <styleUrl>#icon-1899-0288D1-nodesc</styleUrl>
        <Point>
          <coordinates>
            0.750547900000015,52.4129961,0
          </coordinates>
        </Point>
      </Placemark>
      <Placemark>
        <name>Dover Cruise Terminal 1</name>
        <styleUrl>#icon-1899-0288D1-nodesc</styleUrl>
        <Point>
          <coordinates>
            1.3145346,51.1137696,0
          </coordinates>
        </Point>
      </Placemark>
    </Folder>
  </Document>
</kml>
