<?xml version="1.0" encoding="UTF-8"?>
<kml xmlns="http://www.opengis.net/kml/2.2">
  <Document>
    <name>Great Britain</name>
    <description/>
    <Style id="icon-1899-0288D1-nodesc-normal">
      <IconStyle>
        <color>ffd18802</color>
        <scale>1</scale>
        <Icon>
          <href>http://www.gstatic.com/mapspro/images/stock/503-wht-blank_maps.png</href>
        </Icon>
        <hotSpot x="32" xunits="pixels" y="64" yunits="insetPixels"/>
      </IconStyle>
      <LabelStyle>
        <scale>0</scale>
      </LabelStyle>
      <BalloonStyle>
        <text><![CDATA[<h3>$[name]</h3>]]></text>
      </BalloonStyle>
    </Style>
    <Style id="icon-1899-0288D1-nodesc-highlight">
      <IconStyle>
        <color>ffd18802</color>
        <scale>1</scale>
        <Icon>
          <href>http://www.gstatic.com/mapspro/images/stock/503-wht-blank_maps.png</href>
        </Icon>
        <hotSpot x="32" xunits="pixels" y="64" yunits="insetPixels"/>
      </IconStyle>
      <LabelStyle>
        <scale>1</scale>
      </LabelStyle>
      <BalloonStyle>
        <text><![CDATA[<h3>$[name]</h3>]]></text>
      </BalloonStyle>
    </Style>
    <StyleMap id="icon-1899-0288D1-nodesc">
      <Pair>
        <key>normal</key>
        <styleUrl>#icon-1899-0288D1-nodesc-normal</styleUrl>
      </Pair>
      <Pair>
        <key>highlight</key>
        <styleUrl>#icon-1899-0288D1-nodesc-highlight</styleUrl>
      </Pair>
    </StyleMap>
    <Folder>
      <name>Untitled layer</name>
      <Placemark>
        <name>Dunwich Heath</name>
        <styleUrl>#icon-1899-0288D1-nodesc</styleUrl>
        <Point>
          <coordinates>
            1.62671499999999,52.25889,0
          </coordinates>
        </Point>
      </Placemark>
      <Placemark>
        <name>Sutton Hoo</name>
        <styleUrl>#icon-1899-0288D1-nodesc</styleUrl>
        <Point>
          <coordinates>
            1.3407962,52.0944505,0
          </coordinates>
        </Point>
      </Placemark>
      <Placemark>
        <name>Crich Tramway Museum</name>
        <styleUrl>#icon-1899-0288D1-nodesc</styleUrl>
        <Point>
          <coordinates>
            -1.48666930000002,53.0903012,0
          </coordinates>
        </Point>
      </Placemark>
      <Placemark>
        <name><![CDATA[Poole's Cavern]]></name>
        <styleUrl>#icon-1899-0288D1-nodesc</styleUrl>
        <Point>
          <coordinates>
            -1.9251782,53.24997,0
          </coordinates>
        </Point>
      </Placemark>
      <Placemark>
        <name>Allesley Hotel</name>
        <styleUrl>#icon-1899-0288D1-nodesc</styleUrl>
        <Point>
          <coordinates>
            -1.56006709999997,52.4227875,0
          </coordinates>
        </Point>
      </Placemark>
      <Placemark>
        <name>Eastbourne</name>
        <styleUrl>#icon-1899-0288D1-nodesc</styleUrl>
        <Point>
          <coordinates>
            0.290472000000022,50.768035,0
          </coordinates>
        </Point>
      </Placemark>
      <Placemark>
        <name>Herstmonceux Observatory
</name>
        <styleUrl>#icon-1899-0288D1-nodesc</styleUrl>
        <Point>
          <coordinates>
            0.3456218,50.8702576,0
          </coordinates>
        </Point>
      </Placemark>
      <Placemark>
        <name>Grizedale Forest</name>
        <styleUrl>#icon-1899-0288D1-nodesc</styleUrl>
        <Point>
          <coordinates>
            -3.00028999999995,54.354267,0
          </coordinates>
        </Point>
      </Placemark>
      <Placemark>
        <name>Rydal Mount</name>
        <styleUrl>#icon-1899-0288D1-nodesc</styleUrl>
        <Point>
          <coordinates>
            -2.98199950000003,54.4488337,0
          </coordinates>
        </Point>
      </Placemark>
      <Placemark>
        <name>Castlerigg Stone Circle</name>
        <styleUrl>#icon-1899-0288D1-nodesc</styleUrl>
        <Point>
          <coordinates>
            -3.09840199999996,54.602824,0
          </coordinates>
        </Point>
      </Placemark>
      <Placemark>
        <name>Loughton Baptist Church</name>
        <styleUrl>#icon-1899-0288D1-nodesc</styleUrl>
        <Point>
          <coordinates>
            0.050617099999954,51.6442753,0
          </coordinates>
        </Point>
      </Placemark>
      <Placemark>
        <name>Coniston Water</name>
        <styleUrl>#icon-1899-0288D1-nodesc</styleUrl>
        <Point>
          <coordinates>
            -3.07162659999995,54.343243,0
          </coordinates>
        </Point>
      </Placemark>
      <Placemark>
        <name>Biggin Hill</name>
        <styleUrl>#icon-1899-0288D1-nodesc</styleUrl>
        <Point>
          <coordinates>
            0.0287677000000031,51.3318849,0
          </coordinates>
        </Point>
      </Placemark>
      <Placemark>
        <name>Houghton Hall</name>
        <styleUrl>#icon-1899-0288D1-nodesc</styleUrl>
        <Point>
          <coordinates>
            0.65781579999998,52.826846,0
          </coordinates>
        </Point>
      </Placemark>
      <Placemark>
        <name>Canterbury Cathedral</name>
        <styleUrl>#icon-1899-0288D1-nodesc</styleUrl>
        <Point>
          <coordinates>
            1.08279979999998,51.2797971,0
          </coordinates>
        </Point>
      </Placemark>
      <Placemark>
        <name>Leeds Castle</name>
        <styleUrl>#icon-1899-0288D1-nodesc</styleUrl>
        <Point>
          <coordinates>
            0.630464899999993,51.2489896,0
          </coordinates>
        </Point>
      </Placemark>
      <Placemark>
        <name>Dover Castle</name>
        <styleUrl>#icon-1899-0288D1-nodesc</styleUrl>
        <Point>
          <coordinates>
            1.32339100000002,51.128771,0
          </coordinates>
        </Point>
      </Placemark>
      <Placemark>
        <name>White Cliffs of Dover</name>
        <styleUrl>#icon-1899-0288D1-nodesc</styleUrl>
        <Point>
          <coordinates>
            1.35730280000007,51.1344689,0
          </coordinates>
        </Point>
      </Placemark>
      <Placemark>
        <name>Sandringham</name>
        <styleUrl>#icon-1899-0288D1-nodesc</styleUrl>
        <Point>
          <coordinates>
            0.512488899999994,52.8296856,0
          </coordinates>
        </Point>
      </Placemark>
      <Placemark>
        <name>Thursford Collection
</name>
        <styleUrl>#icon-1899-0288D1-nodesc</styleUrl>
        <Point>
          <coordinates>
            0.94048650000002,52.8710396,0
          </coordinates>
        </Point>
      </Placemark>
      <Placemark>
        <name>Blickling Estate</name>
        <styleUrl>#icon-1899-0288D1-nodesc</styleUrl>
        <Point>
          <coordinates>
            1.23164700000007,52.811731,0
          </coordinates>
        </Point>
      </Placemark>
      <Placemark>
        <name>Holkham Hall</name>
        <styleUrl>#icon-1899-0288D1-nodesc</styleUrl>
        <Point>
          <coordinates>
            0.803676999999993,52.949851,0
          </coordinates>
        </Point>
      </Placemark>
      <Placemark>
        <name>Felbrigg Hall</name>
        <styleUrl>#icon-1899-0288D1-nodesc</styleUrl>
        <Point>
          <coordinates>
            1.27724820000003,52.9144158,0
          </coordinates>
        </Point>
      </Placemark>
      <Placemark>
        <name>Little Walsingham</name>
        <styleUrl>#icon-1899-0288D1-nodesc</styleUrl>
        <Point>
          <coordinates>
            0.875399099999981,52.8959389,0
          </coordinates>
        </Point>
      </Placemark>
      <Placemark>
        <name>Blakeney Point</name>
        <styleUrl>#icon-1899-0288D1-nodesc</styleUrl>
        <Point>
          <coordinates>
            0.961510299999986,52.9666526,0
          </coordinates>
        </Point>
      </Placemark>
      <Placemark>
        <name>Caithness Crystal Kings Lynn</name>
        <styleUrl>#icon-1899-0288D1-nodesc</styleUrl>
        <Point>
          <coordinates>
            0.409890000000019,52.742053,0
          </coordinates>
        </Point>
      </Placemark>
      <Placemark>
        <name>Legoland Windsor</name>
        <styleUrl>#icon-1899-0288D1-nodesc</styleUrl>
        <Point>
          <coordinates>
            -0.650027499999965,51.4638338,0
          </coordinates>
        </Point>
      </Placemark>
      <Placemark>
        <name>Windsor Castle</name>
        <styleUrl>#icon-1899-0288D1-nodesc</styleUrl>
        <Point>
          <coordinates>
            -0.604402700000037,51.483894,0
          </coordinates>
        </Point>
      </Placemark>
      <Placemark>
        <name>The Savill Garden</name>
        <styleUrl>#icon-1899-0288D1-nodesc</styleUrl>
        <Point>
          <coordinates>
            -0.595096499999954,51.4261436,0
          </coordinates>
        </Point>
      </Placemark>
      <Placemark>
        <name>Lindisfarne Abbey</name>
        <styleUrl>#icon-1899-0288D1-nodesc</styleUrl>
        <Point>
          <coordinates>
            -1.80089450000003,55.6691551,0
          </coordinates>
        </Point>
      </Placemark>
      <Placemark>
        <name>Osborne House</name>
        <styleUrl>#icon-1899-0288D1-nodesc</styleUrl>
        <Point>
          <coordinates>
            -1.26943099999994,50.750372,0
          </coordinates>
        </Point>
      </Placemark>
      <Placemark>
        <name>Mottistone Manor
</name>
        <styleUrl>#icon-1899-0288D1-nodesc</styleUrl>
        <Point>
          <coordinates>
            -1.42704800000001,50.65246,0
          </coordinates>
        </Point>
      </Placemark>
      <Placemark>
        <name>The Needles</name>
        <styleUrl>#icon-1899-0288D1-nodesc</styleUrl>
        <Point>
          <coordinates>
            -1.58983950000004,50.6626024,0
          </coordinates>
        </Point>
      </Placemark>
      <Placemark>
        <name>Ventnor Botanic Garden</name>
        <styleUrl>#icon-1899-0288D1-nodesc</styleUrl>
        <Point>
          <coordinates>
            -1.22664810000003,50.5895122,0
          </coordinates>
        </Point>
      </Placemark>
      <Placemark>
        <name>Brading Roman Villa</name>
        <styleUrl>#icon-1899-0288D1-nodesc</styleUrl>
        <Point>
          <coordinates>
            -1.15274539999996,50.6730117,0
          </coordinates>
        </Point>
      </Placemark>
      <Placemark>
        <name>Dinosaur Isle</name>
        <styleUrl>#icon-1899-0288D1-nodesc</styleUrl>
        <Point>
          <coordinates>
            -1.14275900000007,50.659197,0
          </coordinates>
        </Point>
      </Placemark>
      <Placemark>
        <name>Waltzing Waters</name>
        <styleUrl>#icon-1899-0288D1-nodesc</styleUrl>
        <Point>
          <coordinates>
            -1.14075790000004,50.7105509,0
          </coordinates>
        </Point>
      </Placemark>
      <Placemark>
        <name>National Railway Museum York</name>
        <styleUrl>#icon-1899-0288D1-nodesc</styleUrl>
        <Point>
          <coordinates>
            -1.09636599999999,53.9605467,0
          </coordinates>
        </Point>
      </Placemark>
      <Placemark>
        <name>York Minster</name>
        <styleUrl>#icon-1899-0288D1-nodesc</styleUrl>
        <Point>
          <coordinates>
            -1.08192050000002,53.9623292,0
          </coordinates>
        </Point>
      </Placemark>
      <Placemark>
        <name>The Lodge Willersley Castle</name>
        <styleUrl>#icon-1899-0288D1-nodesc</styleUrl>
        <Point>
          <coordinates>
            -1.55287279999993,53.1137985,0
          </coordinates>
        </Point>
      </Placemark>
      <Placemark>
        <name>Masson Mills</name>
        <styleUrl>#icon-1899-0288D1-nodesc</styleUrl>
        <Point>
          <coordinates>
            -1.5619236,53.1126478,0
          </coordinates>
        </Point>
      </Placemark>
      <Placemark>
        <name>Chatsworth House</name>
        <styleUrl>#icon-1899-0288D1-nodesc</styleUrl>
        <Point>
          <coordinates>
            -1.61142740000003,53.2275433,0
          </coordinates>
        </Point>
      </Placemark>
      <Placemark>
        <name>Kedleston Hall</name>
        <styleUrl>#icon-1899-0288D1-nodesc</styleUrl>
        <Point>
          <coordinates>
            -1.53696160000004,52.9593247,0
          </coordinates>
        </Point>
      </Placemark>
      <Placemark>
        <name>Haddon Hall</name>
        <styleUrl>#icon-1899-0288D1-nodesc</styleUrl>
        <Point>
          <coordinates>
            -1.64959299999998,53.193965,0
          </coordinates>
        </Point>
      </Placemark>
      <Placemark>
        <name>Biddulph Grange Garden</name>
        <styleUrl>#icon-1899-0288D1-nodesc</styleUrl>
        <Point>
          <coordinates>
            -2.16230599999994,53.129376,0
          </coordinates>
        </Point>
      </Placemark>
      <Placemark>
        <name>Little Moreton Hall</name>
        <styleUrl>#icon-1899-0288D1-nodesc</styleUrl>
        <Point>
          <coordinates>
            -2.25174659999993,53.1271607,0
          </coordinates>
        </Point>
      </Placemark>
      <Placemark>
        <name>Holy Isle</name>
        <styleUrl>#icon-1899-0288D1-nodesc</styleUrl>
        <Point>
          <coordinates>
            -5.07310860000007,55.525063,0
          </coordinates>
        </Point>
      </Placemark>
      <Placemark>
        <name>Histon</name>
        <styleUrl>#icon-1899-0288D1-nodesc</styleUrl>
        <Point>
          <coordinates>
            0.103711999999973,52.254867,0
          </coordinates>
        </Point>
      </Placemark>
    </Folder>
  </Document>
</kml>
