<?xml version="1.0" encoding="UTF-8"?>
<kml xmlns="http://www.opengis.net/kml/2.2">
  <Document>
    <name>Great Britain</name>
    <description/>
    <Style id="icon-1899-0288D1-nodesc-normal">
      <IconStyle>
        <color>ffd18802</color>
        <scale>1</scale>
        <Icon>
          <href>http://www.gstatic.com/mapspro/images/stock/503-wht-blank_maps.png</href>
        </Icon>
        <hotSpot x="32" xunits="pixels" y="64" yunits="insetPixels"/>
      </IconStyle>
      <LabelStyle>
        <scale>0</scale>
      </LabelStyle>
      <BalloonStyle>
        <text><![CDATA[<h3>$[name]</h3>]]></text>
      </BalloonStyle>
    </Style>
    <Style id="icon-1899-0288D1-nodesc-highlight">
      <IconStyle>
        <color>ffd18802</color>
        <scale>1</scale>
        <Icon>
          <href>http://www.gstatic.com/mapspro/images/stock/503-wht-blank_maps.png</href>
        </Icon>
        <hotSpot x="32" xunits="pixels" y="64" yunits="insetPixels"/>
      </IconStyle>
      <LabelStyle>
        <scale>1</scale>
      </LabelStyle>
      <BalloonStyle>
        <text><![CDATA[<h3>$[name]</h3>]]></text>
      </BalloonStyle>
    </Style>
    <StyleMap id="icon-1899-0288D1-nodesc">
      <Pair>
        <key>normal</key>
        <styleUrl>#icon-1899-0288D1-nodesc-normal</styleUrl>
      </Pair>
      <Pair>
        <key>highlight</key>
        <styleUrl>#icon-1899-0288D1-nodesc-highlight</styleUrl>
      </Pair>
    </StyleMap>
    <Folder>
      <name>Untitled layer</name>
      <Placemark>
        <name>Dunwich Heath</name>
        <styleUrl>#icon-1899-0288D1-nodesc</styleUrl>
        <Point>
          <coordinates>
            1.62671499999999,52.25889,0
          </coordinates>
        </Point>
      </Placemark>
      <Placemark>
        <name>Sutton Hoo</name>
        <styleUrl>#icon-1899-0288D1-nodesc</styleUrl>
        <Point>
          <coordinates>
            1.3407962,52.0944505,0
          </coordinates>
        </Point>
      </Placemark>
      <Placemark>
        <name>Crich Tramway Museum</name>
        <styleUrl>#icon-1899-0288D1-nodesc</styleUrl>
        <Point>
          <coordinates>
            -1.48666930000002,53.0903012,0
          </coordinates>
        </Point>
      </Placemark>
      <Placemark>
        <name><![CDATA[Poole's Cavern]]></name>
        <styleUrl>#icon-1899-0288D1-nodesc</styleUrl>
        <Point>
          <coordinates>
            -1.9251782,53.24997,0
          </coordinates>
        </Point>
      </Placemark>
      <Placemark>
        <name>Allesley Hotel</name>
        <styleUrl>#icon-1899-0288D1-nodesc</styleUrl>
        <Point>
          <coordinates>
            -1.56006709999997,52.4227875,0
          </coordinates>
        </Point>
      </Placemark>
      <Placemark>
        <name>Eastbourne</name>
        <styleUrl>#icon-1899-0288D1-nodesc</styleUrl>
        <Point>
          <coordinates>
            0.290472000000022,50.768035,0
          </coordinates>
        </Point>
      </Placemark>
      <Placemark>
        <name>Herstmonceux Observatory
</name>
        <styleUrl>#icon-1899-0288D1-nodesc</styleUrl>
        <Point>
          <coordinates>
            0.3456218,50.8702576,0
          </coordinates>
        </Point>
      </Placemark>
      <Placemark>
        <name>Grizedale Forest</name>
        <styleUrl>#icon-1899-0288D1-nodesc</styleUrl>
        <Point>
          <coordinates>
            -3.00028999999995,54.354267,0
          </coordinates>
        </Point>
      </Placemark>
      <Placemark>
        <name>Rydal Mount</name>
        <styleUrl>#icon-1899-0288D1-nodesc</styleUrl>
        <Point>
          <coordinates>
            -2.98199950000003,54.4488337,0
          </coordinates>
        </Point>
      </Placemark>
      <Placemark>
        <name>Castlerigg Stone Circle</name>
        <styleUrl>#icon-1899-0288D1-nodesc</styleUrl>
        <Point>
          <coordinates>
            -3.09840199999996,54.602824,0
          </coordinates>
        </Point>
      </Placemark>
      <Placemark>
        <name>Loughton Baptist Church</name>
        <styleUrl>#icon-1899-0288D1-nodesc</styleUrl>
        <Point>
          <coordinates>
            0.050617099999954,51.6442753,0
          </coordinates>
        </Point>
      </Placemark>
      <Placemark>
        <name>Coniston Water</name>
        <styleUrl>#icon-1899-0288D1-nodesc</styleUrl>
        <Point>
          <coordinates>
            -3.07162659999995,54.343243,0
          </coordinates>
        </Point>
      </Placemark>
    </Folder>
  </Document>
</kml>
