<?xml version="1.0" encoding="UTF-8"?>
<kml xmlns="http://www.opengis.net/kml/2.2">
  <Document>
    <name>Japan</name>
    <description/>
    <Style id="icon-1899-0288D1-nodesc-normal">
      <IconStyle>
        <color>ffd18802</color>
        <scale>1</scale>
        <Icon>
          <href>http://www.gstatic.com/mapspro/images/stock/503-wht-blank_maps.png</href>
        </Icon>
        <hotSpot x="32" xunits="pixels" y="64" yunits="insetPixels"/>
      </IconStyle>
      <LabelStyle>
        <scale>0</scale>
      </LabelStyle>
      <BalloonStyle>
        <text><![CDATA[<h3>$[name]</h3>]]></text>
      </BalloonStyle>
    </Style>
    <Style id="icon-1899-0288D1-nodesc-highlight">
      <IconStyle>
        <color>ffd18802</color>
        <scale>1</scale>
        <Icon>
          <href>http://www.gstatic.com/mapspro/images/stock/503-wht-blank_maps.png</href>
        </Icon>
        <hotSpot x="32" xunits="pixels" y="64" yunits="insetPixels"/>
      </IconStyle>
      <LabelStyle>
        <scale>1</scale>
      </LabelStyle>
      <BalloonStyle>
        <text><![CDATA[<h3>$[name]</h3>]]></text>
      </BalloonStyle>
    </Style>
    <StyleMap id="icon-1899-0288D1-nodesc">
      <Pair>
        <key>normal</key>
        <styleUrl>#icon-1899-0288D1-nodesc-normal</styleUrl>
      </Pair>
      <Pair>
        <key>highlight</key>
        <styleUrl>#icon-1899-0288D1-nodesc-highlight</styleUrl>
      </Pair>
    </StyleMap>
    <Folder>
      <name>Untitled layer</name>
      <Placemark>
        <name>Mount Fuji</name>
        <styleUrl>#icon-1899-0288D1-nodesc</styleUrl>
        <Point>
          <coordinates>
            138.7273634,35.3606255,0
          </coordinates>
        </Point>
      </Placemark>
      <Placemark>
        <name>Owakudani</name>
        <styleUrl>#icon-1899-0288D1-nodesc</styleUrl>
        <Point>
          <coordinates>
            139.0193538,35.2434489,0
          </coordinates>
        </Point>
      </Placemark>
      <Placemark>
        <name>Hankone Pirate Cruise
</name>
        <styleUrl>#icon-1899-0288D1-nodesc</styleUrl>
        <Point>
          <coordinates>
            138.9995576,35.2238473,0
          </coordinates>
        </Point>
      </Placemark>
      <Placemark>
        <name>Karasuma Kyoto Hotel</name>
        <styleUrl>#icon-1899-0288D1-nodesc</styleUrl>
        <Point>
          <coordinates>
            135.7593548,35.0019621,0
          </coordinates>
        </Point>
      </Placemark>
      <Placemark>
        <name>Narita International Airport</name>
        <styleUrl>#icon-1899-0288D1-nodesc</styleUrl>
        <Point>
          <coordinates>
            140.3928501,35.7719867,0
          </coordinates>
        </Point>
      </Placemark>
      <Placemark>
        <name>Grand Prince Hotel New Takanawa</name>
        <styleUrl>#icon-1899-0288D1-nodesc</styleUrl>
        <Point>
          <coordinates>
            139.73349,35.630053,0
          </coordinates>
        </Point>
      </Placemark>
      <Placemark>
        <name>Fukuchi-In</name>
        <styleUrl>#icon-1899-0288D1-nodesc</styleUrl>
        <Point>
          <coordinates>
            135.584843,34.215951,0
          </coordinates>
        </Point>
      </Placemark>
      <Placemark>
        <name>Nijo Castle
</name>
        <styleUrl>#icon-1899-0288D1-nodesc</styleUrl>
        <Point>
          <coordinates>
            135.748218,35.0142299,0
          </coordinates>
        </Point>
      </Placemark>
      <Placemark>
        <name>Kinkaku-ji</name>
        <styleUrl>#icon-1899-0288D1-nodesc</styleUrl>
        <Point>
          <coordinates>
            135.7292431,35.03937,0
          </coordinates>
        </Point>
      </Placemark>
      <Placemark>
        <name>Kyoto Imperial Palace</name>
        <styleUrl>#icon-1899-0288D1-nodesc</styleUrl>
        <Point>
          <coordinates>
            135.7621246,35.0254135,0
          </coordinates>
        </Point>
      </Placemark>
      <Placemark>
        <name>Todaiji Temple
</name>
        <styleUrl>#icon-1899-0288D1-nodesc</styleUrl>
        <Point>
          <coordinates>
            135.8377434,34.6913035,0
          </coordinates>
        </Point>
      </Placemark>
      <Placemark>
        <name>Kasuga Taisha Shrine
</name>
        <styleUrl>#icon-1899-0288D1-nodesc</styleUrl>
        <Point>
          <coordinates>
            135.8483856,34.6813804,0
          </coordinates>
        </Point>
      </Placemark>
      <Placemark>
        <name>Ryoanji
</name>
        <styleUrl>#icon-1899-0288D1-nodesc</styleUrl>
        <Point>
          <coordinates>
            135.7182634,35.0344943,0
          </coordinates>
        </Point>
      </Placemark>
      <Placemark>
        <name>Higashiyama Jisho-ji</name>
        <styleUrl>#icon-1899-0288D1-nodesc</styleUrl>
        <Point>
          <coordinates>
            135.7982058,35.0270213,0
          </coordinates>
        </Point>
      </Placemark>
      <Placemark>
        <name><![CDATA[Philosopher's Path]]></name>
        <styleUrl>#icon-1899-0288D1-nodesc</styleUrl>
        <Point>
          <coordinates>
            135.7953591,35.0268199,0
          </coordinates>
        </Point>
      </Placemark>
      <Placemark>
        <name>Nishiki Market</name>
        <styleUrl>#icon-1899-0288D1-nodesc</styleUrl>
        <Point>
          <coordinates>
            135.7649016,35.005008,0
          </coordinates>
        </Point>
      </Placemark>
      <Placemark>
        <name>Gion Corner</name>
        <styleUrl>#icon-1899-0288D1-nodesc</styleUrl>
        <Point>
          <coordinates>
            135.7751316,35.001658,0
          </coordinates>
        </Point>
      </Placemark>
      <Placemark>
        <name>Tamozawa Imperial Villa
</name>
        <styleUrl>#icon-1899-0288D1-nodesc</styleUrl>
        <Point>
          <coordinates>
            139.591189,36.752452,0
          </coordinates>
        </Point>
      </Placemark>
      <Placemark>
        <name>Kegon waterfall
</name>
        <styleUrl>#icon-1899-0288D1-nodesc</styleUrl>
        <Point>
          <coordinates>
            139.5037497,36.738597,0
          </coordinates>
        </Point>
      </Placemark>
      <Placemark>
        <name>Toshugu shrine</name>
        <styleUrl>#icon-1899-0288D1-nodesc</styleUrl>
        <Point>
          <coordinates>
            139.5993576,36.7578036,0
          </coordinates>
        </Point>
      </Placemark>
      <Placemark>
        <name>New Hankyu Hotel Osaka
</name>
        <styleUrl>#icon-1899-0288D1-nodesc</styleUrl>
        <Point>
          <coordinates>
            135.4972786,34.7070243,0
          </coordinates>
        </Point>
      </Placemark>
      <Placemark>
        <name>Osaka Castle</name>
        <styleUrl>#icon-1899-0288D1-nodesc</styleUrl>
        <Point>
          <coordinates>
            135.5259555,34.6873333,0
          </coordinates>
        </Point>
      </Placemark>
      <Placemark>
        <name>Osaka Aquarium Kaiyukan</name>
        <styleUrl>#icon-1899-0288D1-nodesc</styleUrl>
        <Point>
          <coordinates>
            135.4289645,34.6545182,0
          </coordinates>
        </Point>
      </Placemark>
      <Placemark>
        <name>Kuchu Teien Observatory</name>
        <styleUrl>#icon-1899-0288D1-nodesc</styleUrl>
        <Point>
          <coordinates>
            135.4903263,34.7052509,0
          </coordinates>
        </Point>
      </Placemark>
      <Placemark>
        <name>Tokyo Tower</name>
        <styleUrl>#icon-1899-0288D1-nodesc</styleUrl>
        <Point>
          <coordinates>
            139.7454329,35.6585805,0
          </coordinates>
        </Point>
      </Placemark>
      <Placemark>
        <name>Meiji Jingu</name>
        <styleUrl>#icon-1899-0288D1-nodesc</styleUrl>
        <Point>
          <coordinates>
            139.6993259,35.6763976,0
          </coordinates>
        </Point>
      </Placemark>
      <Placemark>
        <name>Ghibli Museum</name>
        <styleUrl>#icon-1899-0288D1-nodesc</styleUrl>
        <Point>
          <coordinates>
            139.5704317,35.696238,0
          </coordinates>
        </Point>
      </Placemark>
      <Placemark>
        <name>Hotel Gracery Shinjuku</name>
        <styleUrl>#icon-1899-0288D1-nodesc</styleUrl>
        <Point>
          <coordinates>
            139.7020539,35.695306,0
          </coordinates>
        </Point>
      </Placemark>
      <Placemark>
        <name>Robot Restaurant</name>
        <styleUrl>#icon-1899-0288D1-nodesc</styleUrl>
        <Point>
          <coordinates>
            139.7028432,35.6943187,0
          </coordinates>
        </Point>
      </Placemark>
      <Placemark>
        <name>Shinjuku Gyoen National Garden</name>
        <styleUrl>#icon-1899-0288D1-nodesc</styleUrl>
        <Point>
          <coordinates>
            139.7100517,35.6851763,0
          </coordinates>
        </Point>
      </Placemark>
      <Placemark>
        <name>Rakuu-tei Tea House</name>
        <styleUrl>#icon-1899-0288D1-nodesc</styleUrl>
        <Point>
          <coordinates>
            139.7071145,35.6858152,0
          </coordinates>
        </Point>
      </Placemark>
      <Placemark>
        <name>Nihon Ki-in Tokyo HQ</name>
        <styleUrl>#icon-1899-0288D1-nodesc</styleUrl>
        <Point>
          <coordinates>
            139.7364548,35.6904054,0
          </coordinates>
        </Point>
      </Placemark>
      <Placemark>
        <name>Tempura Abe Honten</name>
        <styleUrl>#icon-1899-0288D1-nodesc</styleUrl>
        <Point>
          <coordinates>
            139.7644904,35.6720749,0
          </coordinates>
        </Point>
      </Placemark>
      <Placemark>
        <name>Alternative Theatre</name>
        <styleUrl>#icon-1899-0288D1-nodesc</styleUrl>
        <Point>
          <coordinates>
            139.7634519,35.673596,0
          </coordinates>
        </Point>
      </Placemark>
      <Placemark>
        <name>Kawaii Monster Cafe</name>
        <styleUrl>#icon-1899-0288D1-nodesc</styleUrl>
        <Point>
          <coordinates>
            139.706113,35.6691492,0
          </coordinates>
        </Point>
      </Placemark>
      <Placemark>
        <name>Narita International Airport</name>
        <styleUrl>#icon-1899-0288D1-nodesc</styleUrl>
        <Point>
          <coordinates>
            140.3928501,35.7719867,0
          </coordinates>
        </Point>
      </Placemark>
    </Folder>
  </Document>
</kml>
